lon,lat,street_address,name,,,,,,,
-85.36,31.22,"1108 ROSS CLARK CIRCLE, DOTHAN, AL 36301",SOUTHEAST ALABAMA MEDICAL CENTER,,,,,,,
-86.16,34.22,"2505 U S HIGHWAY 431 NORTH, BOAZ, AL 35957",MARSHALL MEDICAL CENTER SOUTH,,,,,,,
-87.68,34.79,"205 MARENGO STREET, FLORENCE, AL 35631",ELIZA COFFEE MEMORIAL HOSPITAL,,,,,,,
-86.67,33.60,"50 MEDICAL PARK EAST DRIVE, BIRMINGHAM, AL 35235",ST VINCENT'S EAST,,,,,,,
-86.81,33.25,"1000 FIRST STREET NORTH, ALABASTER, AL 35007",SHELBY BAPTIST MEDICAL CENTER,,,,,,,
-86.27,32.33,"2105 EAST SOUTH BOULEVARD, MONTGOMERY, AL 36116",BAPTIST MEDICAL CENTER SOUTH,,,,,,,
-85.40,32.64,"2000 PEPPERELL PARKWAY, OPELIKA, AL 36801",EAST ALABAMA MEDICAL CENTER AND SNF,,,,,,,
-86.80,33.51,"619 SOUTH 19TH STREET, BIRMINGHAM, AL 35233",UNIVERSITY OF ALABAMA HOSPITAL,,,,,,,
-86.58,34.72,"101 SIVLEY RD, HUNTSVILLE, AL 35801",HUNTSVILLE HOSPITAL,,,,,,,
-85.97,34.01,"1007 GOODYEAR AVENUE, GADSDEN, AL 35903",GADSDEN REGIONAL MEDICAL CENTER,,,,,,,
-86.00,34.00,"600 SOUTH THIRD STREET, GADSDEN, AL 35901",RIVERVIEW REGIONAL MEDICAL CENTER,,,,,,,
-85.46,31.24,"4370 WEST MAIN STREET, DOTHAN, AL 36305",FLOWERS HOSPITAL,,,,,,,
-86.79,33.51,"810 ST VINCENT'S DRIVE, BIRMINGHAM, AL 35205",ST VINCENT'S BIRMINGHAM,,,,,,,
-85.82,33.66,"400 EAST 10TH STREET, ANNISTON, AL 36207",NORTHEAST ALABAMA REGIONAL MED CENTER,,,,,,,
-87.68,30.43,"1613 NORTH MCKENZIE STREET, FOLEY, AL 36535",SOUTH BALDWIN REGIONAL MEDICAL CENTER,,,,,,,
-86.97,34.59,"1201 7TH STREET SE, DECATUR, AL 35609",DECATUR GENERAL HOSPITAL,,,,,,,
-88.20,30.68,"6801 AIRPORT BOULEVARD, MOBILE, AL 36608",PROVIDENCE HOSPITAL,,,,,,,
-87.53,33.20,"809 UNIVERSITY BOULEVARD EAST, TUSCALOOSA, AL 35401",D C H REGIONAL MEDICAL CENTER,,,,,,,
-87.89,30.52,"750 MORPHY AVENUE, FAIRHOPE, AL 36532",THOMAS HOSPITAL,,,,,,,
-86.85,33.50,"701 PRINCETON AVENUE SOUTHWEST, BIRMINGHAM, AL 35211",BAPTIST MEDICAL CENTER-PRINCETON,,,,,,,
-86.75,33.52,"800 MONTCLAIR RD, BIRMINGHAM, AL 35213",TRINITY MEDICAL CENTER,,,,,,,
-88.08,30.70,"5 MOBILE INFIRMARY CIRCLE, MOBILE, AL 36652",MOBILE INFIRMARY,,,,,,,
-86.78,33.46,"2010 BROOKWOOD MEDICAL CENTER DRIVE, BIRMINGHAM, AL 35209",BROOKWOOD MEDICAL CENTER,,,,,,,
-149.83,61.21,"2801 DEBARR ROAD, ANCHORAGE, AK 99508",ALASKA REGIONAL HOSPITAL,,,,,,,
-112.06,33.46,"1111 EAST MCDOWELL ROAD, PHOENIX, AZ 85006",BANNER GOOD SAMARITAN MEDICAL CENTER,,,,,,,
-110.88,32.25,"5301 EAST GRANT ROAD, TUCSON, AZ 85712",TUCSON MEDICAL CENTER,,,,,,,
-112.03,34.74,"269 SOUTH CANDY LANE, COTTONWOOD, AZ 86326",VERDE VALLEY MEDICAL CENTER,,,,,,,
-111.00,32.23,"1601 WEST ST MARY'S ROAD, TUCSON, AZ 85745",CARONDELET ST  MARYS HOSPITAL,,,,,,,
-110.86,32.23,"350 NORTH WILMOT ROAD, TUCSON, AZ 85711",CARONDELET ST JOSEPHS HOSPITAL,,,,,,,
-112.48,34.56,"1003 WILLOW CREEK ROAD, PRESCOTT, AZ 86301",YAVAPAI REGIONAL MEDICAL CENTER,,,,,,,
-114.63,32.68,"2400 SOUTH AVENUE A, YUMA, AZ 85364",YUMA REGIONAL MEDICAL CENTER,,,,,,,
-111.64,35.21,"1200 NORTH BEAVER STREET, FLAGSTAFF, AZ 86001",FLAGSTAFF MEDICAL CENTER,,,,,,,
-112.08,33.48,"350 WEST THOMAS ROAD, PHOENIX, AZ 85013",ST JOSEPH'S HOSPITAL AND MEDICAL CENTER,,,,,,,
-112.10,33.52,"2000 WEST BETHANY HOME ROAD, PHOENIX, AZ 85015",PHOENIX BAPTIST HOSPITAL,,,,,,,
-111.92,33.49,"7400 EAST OSBORN ROAD, SCOTTSDALE, AZ 85251",SCOTTSDALE HEALTHCARE-OSBORN MEDICAL CENTER,,,,,,,
-112.28,33.60,"10401 WEST THUNDERBIRD BOULEVARD, SUN CITY, AZ 85351",BANNER BOSWELL MEDICAL CENTER,,,,,,,
-110.02,34.20,"2200 SHOW LOW LAKE ROAD, SHOW LOW, AZ 85901",SUMMIT HEALTHCARE REGIONAL MEDICAL CENTER,,,,,,,
-111.88,33.39,"1400 SOUTH  DOBSON ROAD, MESA, AZ 85202",BANNER DESERT MEDICAL CENTER,,,,,,,
-114.34,34.48,"101 CIVIC CENTER LANE, LAKE HAVASU CIT, AZ 86403",HAVASU REGIONAL MEDICAL CENTER,,,,,,,
-111.89,33.58,"9003 EAST SHEA BOULEVARD, SCOTTSDALE, AZ 85260",SCOTTSDALE HEALTHCARE-SHEA MEDICAL CENTER,,,,,,,
-112.18,33.61,"5555 WEST THUNDERBIRD ROAD, GLENDALE, AZ 85306",BANNER THUNDERBIRD MEDICAL CENTER,,,,,,,
-112.12,33.67,"19829 NORTH 27TH AVENUE, PHOENIX, AZ 85027",JOHN C LINCOLN DEER VALLEY HOSPITAL,,,,,,,
-112.37,33.66,"14502 WEST MEEKER BOULEVARD, SUN CITY WEST, AZ 85375",BANNER DEL E WEBB MEDICAL CENTER,,,,,,,
-112.20,33.66,"18701 NORTH 67TH AVENUE, GLENDALE, AZ 85308",ARROWHEAD HOSPITAL,,,,,,,
-110.97,32.29,"4888 NORTH STONE AVENUE, TUCSON, AZ 85704",CARONDELET HEART AND VASCULAR INSTITUTE,,,,,,,
-114.55,35.11,"2735 SILVER CREEK ROAD, BULLHEAD CITY, AZ 86442",WESTERN ARIZONA REGIONAL MEDICAL CTR,,,,,,,
-111.96,33.66,"5777 EAST MAYO BOULEVARD, PHOENIX, AZ 85054",MAYO CLINIC HOSPITAL,,,,,,,
-111.69,33.41,"6750 EAST BAYWOOD AVENUE, MESA, AZ 85206",BANNER HEART HOSPITAL,,,,,,,
-94.16,36.11,"3215 N NORTH HILLS BLVD, FAYETTEVILLE, AR 72703",WASHINGTON REGIONAL MED CTR AT NORTH HILLS,,,,,,,
-92.34,34.75,"TWO ST VINCENT CIRCLE, LITTLE ROCK, AR 72205",ST VINCENT INFIRMARY MEDICAL CENTER,,,,,,,
-94.18,36.31,"2710 RIFE MEDICAL LANE, ROGERS, AR 72758",MERCY MEDICAL CENTER,,,,,,,
-90.70,35.84,"225 E JACKSON, JONESBORO, AR 72401",ST BERNARDS MEDICAL CTR,,,,,,,
-94.14,36.18,"609 WEST MAPLE AVENUE, SPRINGDALE, AR 72764","NW ARKANSAS HOSPITALS, LLC",,,,,,,
-93.07,34.47,"300 WERNER STREET, HOT SPRINGS, AR 71903",ST JOSEPHS MERCY HEALTH CENTER INC,,,,,,,
-92.39,36.34,"624 HOSPITAL DRIVE, MOUNTAIN HOME, AR 72653",BAXTER REGIONAL MEDICAL CENTER,,,,,,,
-92.46,35.09,"2302 COLLEGE AVENUE, CONWAY, AR 72034",CONWAY REGIONAL MEDICAL CENTER,,,,,,,
-92.22,34.78,"3333 SPRINGHILL DRIVE, NORTH LITTLE RO, AR 72117",BAPTIST HEALTH MEDICAL CENTER NORTH LITTLE ROCK,,,,,,,
-94.35,35.36,"7301 ROGERS AVE, FORT SMITH, AR 72917",ST EDWARD MERCY MEDICAL CENTER,,,,,,,
-92.02,34.19,"1600 WEST 40TH AVENUE, PINE BLUFF, AR 71603",JEFFERSON REGIONAL MEDICAL CENTER,,,,,,,
-93.04,34.49,"1910 MALVERN AVENUE, HOT SPRINGS, AR 71901",NATIONAL PARK MEDICAL CENTER,,,,,,,
-92.38,34.74,"9601 INTERSTATE 630, EXIT 7, LITTLE ROCK, AR 72205",BAPTIST HEALTH MEDICAL CENTER-LITTLE ROCK,,,,,,,
-90.67,35.81,"3024 STADIUM BOULEVARD, JONESBORO, AR 72401",NEA BAPTIST MEMORIAL HOSPITAL,,,,,,,
-91.63,35.77,"1710 HARRISON STREET, BATESVILLE, AR 72503",WHITE RIVER MEDICAL CENTER,,,,,,,
-92.39,34.74,"1701 S SHACKLEFORD ROAD, LITTLE ROCK, AR 72211",ARKANSAS HEART HOSPITAL,,,,,,,
-124.14,40.78,"2700 DOLBEER ST, EUREKA, CA 95501",ST JOSEPH HOSPITAL,,,,,,,
-122.38,37.59,"1501 TROUSDALE DRIVE, BURLINGAME, CA 94010",PENINSULA MEDICAL CENTER,,,,,,,
-122.47,38.54,"10 WOODLAND ROAD, SAINT HELENA, CA 94574",ST HELENA HOSPITAL,,,,,,,
-121.45,38.57,"4001 J ST, SACRAMENTO, CA 95819",MERCY GENERAL HOSPITAL,,,,,,,
-117.01,32.78,"5555 GROSSMONT CENTER DRIVE BOX 58, LA MESA, CA 91942",GROSSMONT HOSPITAL,,,,,,,
-119.01,35.39,"420 34TH ST BOX 1888, BAKERSFIELD, CA 93301",BAKERSFIELD MEMORIAL HOSPITAL,,,,,,,
-121.85,39.74,"1531 ESPLANADE, CHICO, CA 95926",ENLOE MEDICAL CENTER,,,,,,,
-118.16,34.70,"1600 W AVE J, LANCASTER, CA 93534",ANTELOPE VALLEY HOSPITAL MED CENTER,,,,,,,
-119.29,36.33,"400 W MINERAL KING AVE, VISALIA, CA 93291",KAWEAH DELTA MEDICAL CENTER,,,,,,,
-118.26,34.13,"1420 S CENTRAL AVE, GLENDALE, CA 91204",GLENDALE MEM HOSPITAL & HLTH CENTER,,,,,,,
-117.87,33.78,"1100 WEST STEWART DR, ORANGE, CA 92868",ST JOSEPH HOSPITAL,,,,,,,
-117.16,32.75,"4077 5TH AVE, SAN DIEGO, CA 92103",SCRIPPS MERCY HOSPITAL,,,,,,,
-119.16,34.22,"1600 N ROSE AVE, OXNARD, CA 93030",ST JOHNS REGIONAL MEDICAL CENTER,,,,,,,
-121.29,37.97,"1800 N CALIFORNIA ST, STOCKTON, CA 95204",ST JOSEPHS MED CENTER OF STOCKTON,,,,,,,
-119.77,36.84,"1303 E HERNDON AVE, FRESNO, CA 93710",SAINT AGNES MEDICAL CENTER,,,,,,,
-120.41,34.95,"1400 E CHURCH ST, SANTA MARIA, CA 93454",MARIAN MEDICAL CENTER,,,,,,,
-121.47,38.57,"2801 L STREET, SACRAMENTO, CA 95816",SUTTER GENERAL HOSPITAL,,,,,,,
-117.08,33.13,"555 E VALLEY PARKWAY, ESCONDIDO, CA 92025",PALOMAR MEDICAL CENTER,,,,,,,
-117.29,33.19,"4002 VISTA WAY, OCEANSIDE, CA 92056",TRI-CITY MEDICAL CENTER,,,,,,,
-121.59,39.14,"726 4TH ST, MARYSVILLE, CA 95901",RIDEOUT MEMORIAL HOSPITAL,,,,,,,
-117.93,33.89,"101 E VALENCIA MESA DRIVE, FULLERTON, CA 92835",ST JUDE MEDICAL CENTER,,,,,,,
-122.70,38.44,"1165 MONTGOMERY DR, SANTA ROSA, CA 95405",SANTA ROSA MEMORIAL HOSPITAL,,,,,,,
-120.84,37.51,"825 DELBON AVE, TURLOCK, CA 95382",EMANUEL MEDICAL CENTER INC,,,,,,,
-118.19,33.81,"2801 ATLANTIC AVE, LONG BEACH, CA 90806",LONG BEACH MEMORIAL MEDICAL CENTER,,,,,,,
-122.04,37.91,"1601 YGNACIO VALLEY RD, WALNUT CREEK, CA 94598",JOHN MUIR MEDICAL CENTER - WALNUT CREEK CAMPUS,,,,,,,
-122.25,37.48,"170 ALAMEDA DE LAS PULGAS, REDWOOD CITY, CA 94062",SEQUOIA HOSPITAL,,,,,,,
-117.02,32.62,"751 MEDICAL CENTER COURT, CHULA VISTA, CA 91911",SHARP CHULA VISTA MEDICAL CENTER,,,,,,,
-117.93,33.62,"ONE HOAG DRIVE, NEWPORT BEACH, CA 92663",HOAG MEMORIAL HOSPITAL PRESBYTERIAN,,,,,,,
-121.57,39.76,"5974 PENTZ ROAD, PARADISE, CA 95969",FEATHER RIVER HOSPITAL,,,,,,,
-120.65,35.28,"1911 JOHNSON AVE, SAN LUIS OBISPO, CA 93401",FRENCH HOSPITAL MEDICAL CENTER,,,,,,,
-118.33,34.16,"501 SOUTH BUENA VISTA, BURBANK, CA 91505",PROVIDENCE SAINT JOSEPH MEDICAL CTR,,,,,,,
-118.04,34.14,"300 W HUNTINGTON DR, ARCADIA, CA 91006",METHODIST HOSPITAL OF SOUTHERN CA,,,,,,,
-116.54,33.84,"1150 NORTH INDIAN CANYON DRIVE, PALM SPRINGS, CA 92262",DESERT REGIONAL MEDICAL CENTER,,,,,,,
-118.45,34.07,"757 WESTWOOD PLAZA, LOS ANGELES, CA 90095",RONALD REAGAN UCLA MEDICAL CENTER,,,,,,,
-122.40,40.57,"2175 ROSALINE AVE, CLAIRMONT HGTS, REDDING, CA 96001",MERCY MEDICAL CENTER REDDING,,,,,,,
-118.48,34.03,"2121 SANTA MONICA BLVD, SANTA MONICA, CA 90404",SAINT JOHN'S HEALTH CENTER,,,,,,,
-122.71,38.47,"3325 CHANATE RD, SANTA ROSA, CA 95404",SUTTER MEDICAL CENTER OF SANTA ROSA,,,,,,,
-119.03,35.37,"2215 TRUXTUN AVENUE, BAKERSFIELD, CA 93301",MERCY HOSPITAL,,,,,,,
-122.08,37.37,"2500 GRANT ROAD, MOUNTAIN VIEW, CA 94040",EL CAMINO HOSPITAL,,,,,,,
-121.25,38.77,"ONE MEDICAL PLAZA, ROSEVILLE, CA 95661",SUTTER ROSEVILLE MEDICAL CENTER,,,,,,,
-121.65,36.66,"450 EAST ROMIE LANE, SALINAS, CA 93901",SALINAS VALLEY MEMORIAL HOSPITAL,,,,,,,
-118.34,33.81,"3330 LOMITA BLVD, TORRANCE, CA 90509",TORRANCE MEMORIAL MEDICAL CENTER,,,,,,,
-122.54,37.95,"250 BON AIR ROAD, PO BOX 8010, GREENBRAE, CA 94904",MARIN GENERAL HOSPITAL,,,,,,,
-121.95,37.25,"2425 SAMARITAN DRIVE, SAN JOSE, CA 95124",GOOD SAMARITAN HOSPITAL,,,,,,,
-117.89,34.09,"210 W  SAN BERNARDINO ROAD, COVINA, CA 91723",CITRUS VALLEY MEDICAL CENTER-IC CAMPUS,,,,,,,
-116.96,33.75,"1117 EAST DEVONSHIRE, HEMET, CA 92543",HEMET VALLEY MEDICAL CENTER,,,,,,,
-119.26,34.27,"147 N BRENT ST, VENTURA, CA 93003",COMMUNITY MEMORIAL HOSPITAL SAN BUENAVENTURA,,,,,,,
-119.72,34.43,"400 WEST PUEBLO, SANTA BARBARA, CA 93102",SANTA BARBARA COTTAGE HOSPITAL,,,,,,,
-117.24,32.90,"10666 NORTH TORREY PINES ROAD, LA JOLLA, CA 92037",SCRIPPS GREEN HOSPITAL,,,,,,,
-118.15,34.13,"100 W  CALIFORNIA BLVD, PASADENA, CA 91109",HUNTINGTON MEMORIAL HOSPITAL,,,,,,,
-122.18,37.43,"300 PASTEUR DRIVE, STANFORD, CA 94305",STANFORD HOSPITAL,,,,,,,
-121.00,37.67,"1441 FLORIDA AVENUE, MODESTO, CA 95350",DOCTORS MEDICAL CENTER,,,,,,,
-118.63,34.20,"7300 MEDICAL CENTER DR, WEST HILLS, CA 91307",WEST HILLS HOSPITAL & MEDICAL CENTER,,,,,,,
-122.03,37.98,"2540 EAST ST, CONCORD, CA 94520",JOHN MUIR MEDICAL CENTER - CONCORD CAMPUS,,,,,,,
-121.31,38.67,"6501 COYLE AVE, CARMICHAEL, CA 95608",MERCY SAN JUAN MEDICAL CENTER,,,,,,,
-118.88,34.21,"215 W JANSS RD, THOUSAND OAKS, CA 91360",LOS ROBLES HOSPITAL & MEDICAL CENTER,,,,,,,
-118.07,33.80,"3751 KATELLA AVENUE, LOS ALAMITOS, CA 90720",LOS ALAMITOS MEDICAL CENTER,,,,,,,
-120.97,37.67,"1700 COFFEE RD, MODESTO, CA 95355",MEMORIAL  MEDICAL CENTER,,,,,,,
-116.41,33.74,"39-000 BOB HOPE DRIVE, RANCHO MIRAGE, CA 92270",EISENHOWER MEDICAL CENTER,,,,,,,
-121.46,38.55,"2315 STOCKTON BOULEVARD, SACRAMENTO, CA 95817",UNIVERSITY OF CALIFORNIA DAVIS MEDICAL CENTER,,,,,,,
-117.71,33.61,"24451 HEALTH CENTER DRIVE, LAGUNA HILLS, CA 92653",SADDLEBACK MEMORIAL MEDICAL CENTER,,,,,,,
-118.38,34.08,"8700 BEVERLY BLVD, LOS ANGELES, CA 90048",CEDARS-SINAI MEDICAL CENTER,,,,,,,
-117.18,33.56,"25500 MEDICAL CENTER DRIVE, MURRIETA, CA 92562",SOUTHWEST HEALTHCARE SYSTEM,,,,,,,
-119.79,36.86,"15 EAST AUDUBON DRIVE, FRESNO, CA 93720",FRESNO HEART AND SURGICAL HOSPITAL,,,,,,,
-117.06,32.78,"6655 ALVARADO ROAD, SAN DIEGO, CA 92120",ALVARADO HOSPITAL MEDICAL CENTER,,,,,,,
-118.53,34.17,"18321 CLARK STREET, TARZANA, CA 91356",PROVIDENCE TARZANA MEDICAL CENTER,,,,,,,
-122.39,40.59,"1100 BUTTE ST, REDDING, CA 96001",SHASTA REGIONAL MEDICAL CENTER,,,,,,,
-104.71,40.41,"1801 16TH STREET, GREELEY, CO 80631",NORTH COLORADO MEDICAL CENTER,,,,,,,
-107.83,37.24,"1010 THREE SPRINGS BLVD, DURANGO, CO 81301",MERCY REGIONAL MEDICAL CENTER,,,,,,,
-104.97,39.75,"1719 E 19TH AVE, DENVER, CO 80218",PRESBYTERIAN/ST LUKE'S MEDICAL CENTER,,,,,,,
-104.61,38.28,"400 W 16TH STREET, PUEBLO, CO 81003",PARKVIEW MEDICAL CENTER INC,,,,,,,
-104.80,38.84,"1400 E BOULDER ST, COLORADO SPRING, CO 80909",MEMORIAL HOSPITAL CENTRAL,,,,,,,
-108.56,39.09,"2635 N 7TH STREET, GRAND JUNCTION, CO 81502",ST MARYS HOSPITAL AND MEDICAL CENTER,,,,,,,
-104.82,38.87,"2222 N NEVADA AVE, COLORADO SPRING, CO 80907",CENTURA HEALTH-PENROSE ST FRANCIS HEALTH SERVICES,,,,,,,
-104.97,39.67,"2525 S DOWNING ST, DENVER, CO 80210",CENTURA HEALTH-PORTER ADVENTIST HOSPITAL,,,,,,,
-104.83,39.69,"1501 S POTOMAC ST, AURORA, CO 80012","MEDICAL CENTER OF AURORA, THE",,,,,,,
-105.00,40.42,"2500 ROCKY MOUNTAIN AVENUE, LOVELAND, CO 80538",MEDICAL CENTER OF THE ROCKIES,,,,,,,
-72.94,41.31,"1450 CHAPEL ST, NEW HAVEN, CT 6511",HOSPITAL OF ST RAPHAEL,,,,,,,
-72.70,41.77,"114 WOODLAND STREET, HARTFORD, CT 6105",ST FRANCIS HOSPITAL & MEDICAL CENTER,,,,,,,
-73.17,41.19,"267 GRANT STREET, BRIDGEPORT, CT 6610",BRIDGEPORT HOSPITAL,,,,,,,
-72.45,41.87,"31 UNION ST, ROCKVILLE, CT 6066",ROCKVILLE GENERAL HOSPITAL,,,,,,,
-73.04,41.55,"56 FRANKLIN ST, WATERBURY, CT 6706",SAINT MARYS HOSPITAL,,,,,,,
-72.80,41.55,"435 LEWIS AVE, MERIDEN, CT 6450",MIDSTATE MEDICAL CENTER,,,,,,,
-73.63,41.03,"5 PERRYRIDGE RD, GREENWICH, CT 6830",GREENWICH HOSPITAL ASSOCIATION,,,,,,,
-72.65,41.55,"28 CRESCENT ST, MIDDLETOWN, CT 6457",MIDDLESEX HOSPITAL,,,,,,,
-72.94,41.30,"20 YORK ST, NEW HAVEN, CT 6504",YALE-NEW HAVEN HOSPITAL,,,,,,,
-72.09,41.54,"326 WASHINGTON ST, NORWICH, CT 6360",WILLIAM W BACKUS HOSPITAL,,,,,,,
-72.68,41.75,"80 SEYMOUR STREET, HARTFORD, CT 6102",HARTFORD HOSPITAL,,,,,,,
-73.20,41.20,"2800 MAIN ST, BRIDGEPORT, CT 6606",ST VINCENT'S MEDICAL CENTER,,,,,,,
-73.45,41.41,"24 HOSPITAL AVE, DANBURY, CT 6810",DANBURY HOSPITAL,,,,,,,
-73.42,41.11,"24 STEVENS STREET, NORWALK, CT 6856",NORWALK HOSPITAL ASSOCIATION,,,,,,,
-72.79,41.66,"100 GRAND STREET, NEW BRITAIN, CT 6050","HOSPITAL OF CENTRAL CONNECTICUT, THE",,,,,,,
-75.67,39.69,"4755 OGLETOWN-STANTON ROAD, NEWARK, DE 19718","CHRISTIANA CARE HEALTH SERVICES, INC.",,,,,,,
-75.52,39.15,"640 S STATE STREET, DOVER, DE 19901",BAYHEALTH - KENT GENERAL HOSPITAL,,,,,,,
-75.14,38.77,"424 SAVANNAH RD, LEWES, DE 19958",BEEBE MEDICAL CENTER,,,,,,,
-77.05,38.90,"900 23RD ST NW, WASHINGTON, DC 20037",GEORGE WASHINGTON UNIV HOSPITAL,,,,,,,
-77.08,38.91,"3800 RESERVOIR RD, WASHINGTON, DC 20007",GEORGETOWN UNIVERSITY HOSPITAL,,,,,,,
-77.01,38.93,"110 IRVING ST NW, WASHINGTON, DC 20010",WASHINGTON HOSPITAL CENTER,,,,,,,
-80.07,26.50,"2815 S SEACREST BLVD, BOYNTON BEACH, FL 33435",BETHESDA MEMORIAL HOSPITAL,,,,,,,
-81.38,28.53,"1414 S KUHL AVE, ORLANDO, FL 32806",ORLANDO HEALTH,,,,,,,
-81.37,28.57,"601 E ROLLINS ST, ORLANDO, FL 32803",FLORIDA HOSPITAL,,,,,,,
-81.87,26.63,"2776 CLEVELAND AVE, FORT MYERS, FL 33901",LEE MEMORIAL HOSPITAL,,,,,,,
-81.05,29.20,"303 N CLYDE MORRIS BLVD, DAYTONA BEACH, FL 32114",HALIFAX HEALTH MEDICAL CENTER,,,,,,,
-81.80,26.15,"350 7TH ST N, NAPLES, FL 34102",NAPLES COMMUNITY HOSPITAL,,,,,,,
-80.61,28.09,"1350 S HICKORY ST, MELBOURNE, FL 32901",HOLMES REGIONAL MEDICAL CENTER,,,,,,,
-82.34,28.83,"502 HIGHLAND BLVD, INVERNESS, FL 34452",CITRUS MEMORIAL HOSPITAL,,,,,,,
-87.21,30.48,"5151 N 9TH AVE, PENSACOLA, FL 32504",SACRED HEART HOSPITAL,,,,,,,
-85.65,30.16,"615 N BONITA AVE, PANAMA CITY, FL 32401",BAY MEDICAL CENTER,,,,,,,
-80.82,28.63,"951 N WASHINGTON AVE, TITUSVILLE, FL 32796",PARRISH MEDICAL CENTER,,,,,,,
-80.14,25.81,"4300 ALTON RD, MIAMI BEACH, FL 33140",MOUNT SINAI MEDICAL CENTER,,,,,,,
-82.56,27.50,"206 2ND ST E, BRADENTON, FL 34208",MANATEE MEMORIAL HOSPITAL,,,,,,,
-80.18,26.02,"3501 JOHNSON ST, HOLLYWOOD, FL 33021",MEMORIAL REGIONAL HOSPITAL,,,,,,,
-81.69,30.31,"1 SHIRCLIFF WAY, JACKSONVILLE, FL 32204",ST VINCENT'S MEDICAL CENTER,,,,,,,
-80.24,27.20,"200 SE HOSPITAL AVE, STUART, FL 34995",MARTIN MEMORIAL MEDICAL CENTER,,,,,,,
-82.19,28.26,"7050 GALL BLVD, ZEPHYRHILLS, FL 33541",FLORIDA HOSPITAL ZEPHYRHILLS,,,,,,,
-82.04,26.94,"809 E MARION AVE, PUNTA GORDA, FL 33950",CHARLOTTE REGIONAL MEDICAL CENTER,,,,,,,
-81.43,27.47,"3600 S HIGHLANDS AVE, SEBRING, FL 33870",HIGHLANDS REGIONAL MEDICAL CENTER,,,,,,,
-81.72,28.03,"200 AVE F NE, WINTER HAVEN, FL 33881",WINTER HAVEN HOSPITAL,,,,,,,
-81.71,28.82,"1000 WATERMAN WAY, TAVARES, FL 32778",FLORIDA HOSPITAL WATERMAN,,,,,,,
-82.14,29.18,"1500 SW 1ST AVE, OCALA, FL 34474",MUNROE REGIONAL MEDICAL CENTER,,,,,,,
-82.65,27.78,"1200 7TH AVENUE NORTH, SAINT PETERSBUR, FL 33705",ST ANTHONY'S HOSPITAL,,,,,,,
-81.11,29.24,"301 MEMORIAL MEDICAL PARKWAY, DAYTONA BEACH, FL 32117",FLORIDA HOSPITAL MEMORIAL MEDICAL CENTER,,,,,,,
-82.44,27.09,"540 THE RIALTO, VENICE, FL 34285",VENICE REGIONAL MEDICAL CENTER,,,,,,,
-82.44,28.54,"17240 CORTEZ BLVD, BROOKSVILLE, FL 34601",BROOKSVILLE REGIONAL HOSPITAL,,,,,,,
-81.28,28.91,"1055 SAXON BLVD, ORANGE CITY, FL 32763",FLORIDA HOSPITAL FISH MEMORIAL,,,,,,,
-80.12,26.19,"4725 N FEDERAL HWY, FORT LAUDERDALE, FL 33308",HOLY CROSS HOSPITAL INC,,,,,,,
-82.49,27.98,"3001 W MARTIN LUTHER KING JR BLVD, TAMPA, FL 33677",ST JOSEPH'S HOSPITAL,,,,,,,
-82.10,26.99,"2500 HARBOR BLVD, PORT CHARLOTTE, FL 33952",PEACE RIVER REGIONAL MEDICAL CENTER,,,,,,,
-81.87,28.81,"600 E DIXIE AVE, LEESBURG, FL 34748",LEESBURG REGIONAL MEDICAL CENTER,,,,,,,
-82.53,27.32,"1700 S TAMIAMI TRL, SARASOTA, FL 34239",SARASOTA MEMORIAL HOSPITAL,,,,,,,
-81.66,30.32,"800 PRUDENTIAL DR, JACKSONVILLE, FL 32207",BAPTIST MEDICAL CENTER,,,,,,,
-81.32,29.86,"400 HEALTH PARK BLVD, SAINT AUGUSTINE, FL 32086",FLAGLER HOSPITAL,,,,,,,
-80.72,28.34,"110 LONGWOOD AVE, ROCKLEDGE, FL 32955",WUESTHOFF MEDICAL CENTER  ROCKLEDGE,,,,,,,
-87.23,30.43,"1000 W MORENO ST, PENSACOLA, FL 32501",BAPTIST HOSPITAL,,,,,,,
-81.57,27.90,"410 S 11TH ST, LAKE WALES, FL 33853",LAKE WALES MEDICAL CENTER,,,,,,,
-80.39,27.66,"1000 36TH ST, VERO BEACH, FL 32960",INDIAN RIVER MEDICAL CENTER,,,,,,,
-81.51,27.54,"4200 SUN N' LAKE BLVD, SEBRING, FL 33871",FLORIDA HOSPITAL HEARTLAND MEDICAL CENTER,,,,,,,
-81.41,28.30,"700 WEST OAK STREET, KISSIMMEE, FL 34741",OSCEOLA REGIONAL MEDICAL CENTER,,,,,,,
-82.34,29.64,"1600 SW ARCHER RD, GAINESVILLE, FL 32610",SHANDS HOSPITAL AT THE UNIVERSITY OF FLORIDA,,,,,,,
-81.19,29.48,"60 MEMORIAL MEDICAL PKWY, PALM COAST, FL 32164",FLORIDA HOSPITAL FLAGLER,,,,,,,
-82.80,27.95,"300 PINELLAS ST, CLEARWATER, FL 33756",MORTON PLANT HOSPITAL,,,,,,,
-82.46,27.94,"1 TAMPA GENERAL CIRCLE, TAMPA, FL 33606",TAMPA GENERAL HOSPITAL,,,,,,,
-80.15,25.97,"20900 BISCAYNE BLVD, AVENTURA, FL 33180",AVENTURA HOSPITAL AND MEDICAL CENTER,,,,,,,
-84.26,30.46,"1300 MICCOSUKEE RD, TALLAHASSEE, FL 32308",TALLAHASSEE MEMORIAL HEALTHCARE,,,,,,,
-81.44,30.28,"4500 SAN PABLO RD, JACKSONVILLE, FL 32224",MAYO CLINIC,,,,,,,
-80.29,25.70,"6200 SW 73RD ST, SOUTH MIAMI, FL 33143","SOUTH MIAMI HOSPITAL, INC",,,,,,,
-81.95,28.06,"1324 LAKELAND HILLS BLVD, LAKELAND, FL 33805",LAKELAND REGIONAL MEDICAL CENTER,,,,,,,
-81.28,28.81,"1401 W SEMINOLE BLVD, SANFORD, FL 32771",CENTRAL FLORIDA REGIONAL HOSPITAL,,,,,,,
-82.45,27.30,"5731 BEE RIDGE RD, SARASOTA, FL 34233",DOCTORS HOSPITAL OF SARASOTA,,,,,,,
-80.10,26.36,"800 MEADOWS RD, BOCA RATON, FL 33486",BOCA RATON REGIONAL HOSPITAL,,,,,,,
-82.42,28.07,"3100 E FLETCHER AVE, TAMPA, FL 33613",FLORIDA HOSPITAL TAMPA,,,,,,,
-80.09,26.83,"3360 BURNS RD, PALM BEACH GARD, FL 33410",PALM BEACH GARDENS MEDICAL CENTER,,,,,,,
-81.60,30.29,"3625 UNIVERSITY BLVD S, JACKSONVILLE, FL 32216",MEMORIAL HOSPITAL JACKSONVILLE,,,,,,,
-82.66,28.20,"9330 SR 54, TRINITY, FL 34655",MEDICAL CENTER OF TRINITY,,,,,,,
-82.41,29.66,"6500 NEWBERRY RD, GAINESVILLE, FL 32605",NORTH FLORIDA REGIONAL MEDICAL CENTER,,,,,,,
-82.20,28.35,"13100 FT KING ROAD, DADE CITY, FL 33525",PASCO REGIONAL MEDICAL CENTER,,,,,,,
-82.14,29.18,"1431 SW 1ST AVE, OCALA, FL 34478",OCALA REGIONAL MEDICAL CENTER,,,,,,,
-82.62,27.48,"2020 59TH ST W, BRADENTON, FL 34209",BLAKE MEDICAL CENTER,,,,,,,
-80.49,27.84,"13695 US HWY 1, SEBASTIAN, FL 32978",SEBASTIAN RIVER MEDICAL CENTER,,,,,,,
-81.85,26.54,"13681 DOCTOR'S WAY, FORT MYERS, FL 33912",GULF COAST MEDICAL CENTER LEE MEM HEALTH SYSTEM,,,,,,,
-86.63,30.45,"1000 MAR-WALT DR, FORT WALTON BEA, FL 32547",FORT WALTON BEACH MEDICAL CENTER,,,,,,,
-81.74,30.17,"2001 KINGSLEY AVE, ORANGE PARK, FL 32073",ORANGE PARK MEDICAL CENTER,,,,,,,
-87.22,30.52,"8383 N DAVIS HWY, PENSACOLA, FL 32514",WEST FLORIDA HOSPITAL,,,,,,,
-81.69,29.64,"611 ZEAGLER DR, PALATKA, FL 32177",PUTNAM COMMUNITY MEDICAL CENTER,,,,,,,
-82.10,26.99,"21298 OLEAN BLVD, PORT CHARLOTTE, FL 33952",FAWCETT MEMORIAL HOSPITAL,,,,,,,
-82.70,27.83,"6000 49TH STREET N, SAINT PETERSBUR, FL 33709",NORTHSIDE HOSPITAL,,,,,,,
-85.67,30.19,"449 W 23RD ST, PANAMA CITY, FL 32405",GULF COAST MEDICAL CENTER,,,,,,,
-82.29,27.93,"119 OAKFIELD DR, BRANDON, FL 33511",BRANDON REGIONAL HOSPITAL,,,,,,,
-81.94,26.64,"636 DEL PRADO BLVD, CAPE CORAL, FL 33990",CAPE CORAL HOSPITAL,,,,,,,
-80.35,27.43,"1700 S 23RD ST, FORT PIERCE, FL 34950",LAWNWOOD REGIONAL MEDICAL CENTER & HEART INSTITUTE,,,,,,,
-82.80,27.92,"201 14TH ST SW, LARGO, FL 33770",LARGO MEDICAL CENTER,,,,,,,
-80.10,26.92,"1210 S OLD DIXIE HWY, JUPITER, FL 33458",JUPITER MEDICAL CENTER,,,,,,,
-82.69,28.36,"14000 FIVAY ROAD, HUDSON, FL 34667",REGIONAL MEDICAL CENTER BAYONET POINT,,,,,,,
-80.13,26.44,"5352 LINTON BLVD, DELRAY BEACH, FL 33484",DELRAY MEDICAL CENTER,,,,,,,
-80.28,27.29,"1800 SE TIFFANY AVE, PORT SAINT LUCI, FL 34952",ST LUCIE MEDICAL CENTER,,,,,,,
-82.53,28.54,"11375 CORTEZ BLVD, BROOKSVILLE, FL 34613",OAK HILL HOSPITAL,,,,,,,
-82.71,28.04,"3231 MCMULLEN BOOTH RD, SAFETY HARBOR, FL 34695",MEASE COUNTRYSIDE HOSPITAL,,,,,,,
-81.73,26.21,"6101 PINE RIDGE ROAD, NAPLES, FL 34119",PHYSICIANS REGIONAL MEDICAL CENTER - PINE RIDGE,,,,,,,
-81.96,28.95,"1451 EL CAMINO REAL, THE VILLAGES, FL 32159","VILLAGES REGIONAL HOSPITAL, THE",,,,,,,
-82.35,31.23,"410 DARLING AVENUE, WAYCROSS, GA 31501",SATILLA REGIONAL MEDICAL CENTER,,,,,,,
-84.16,31.59,"417 THIRD AVENUE, ALBANY, GA 31703",PHOEBE PUTNEY MEMORIAL HOSPITAL,,,,,,,
-84.32,33.79,"1364 CLIFTON ROAD, NE, ATLANTA, GA 30322",EMORY UNIVERSITY HOSPITAL,,,,,,,
-85.07,33.57,"705 DIXIE STREET, CARROLLTON, GA 30117",TANNER MEDICAL CENTER - CARROLLTON,,,,,,,
-85.06,33.03,"1514 VERNON ROAD, LAGRANGE, GA 30240",WEST GEORGIA MEDICAL CENTER,,,,,,,
-81.98,33.47,"1350 WALTON WAY, AUGUSTA, GA 30901",UNIVERSITY HOSPITAL,,,,,,,
-83.82,34.30,"743 SPRING STREET, GAINESVILLE, GA 30501","NORTHEAST GEORGIA MEDICAL CENTER, INC",,,,,,,
-84.80,34.20,"960 JOE FRANK HARRIS PARKWAY, CARTERSVILLE, GA 30120",CARTERSVILLE MEDICAL CENTER,,,,,,,
-84.27,33.24,"601 SOUTH 8TH STREET, GRIFFIN, GA 30223",SPALDING REGIONAL MEDICAL CENTER,,,,,,,
-84.55,33.97,"677 CHURCH STREET, MARIETTA, GA 30060",WELLSTAR KENNESTONE HOSPITAL,,,,,,,
-81.09,32.03,"4700 WATERS AVENUE, SAVANNAH, GA 31403","MEMORIAL HEALTH UNIV MED CEN, INC",,,,,,,
-83.97,30.83,"915 GORDON AVENUE & MIMOSA DRIVE, THOMASVILLE, GA 31792",JOHN D ARCHBOLD MEMORIAL HOSPITAL,,,,,,,
-81.15,31.99,"11705 MERCY BOULEVARD, SAVANNAH, GA 31419",ST JOSEPH'S HOSPITAL - SAVANNAH,,,,,,,
-85.18,34.26,"304 TURNER MCCALL BLVD P O BOX 233, ROME, GA 30162",FLOYD MEDICAL CENTER,,,,,,,
-83.40,33.96,"1199 PRINCE AVENUE, ATHENS, GA 30606",ATHENS REGIONAL MEDICAL CENTER,,,,,,,
-84.28,33.79,"2701 N DECATUR ROAD, DECATUR, GA 30033",DEKALB MEDICAL CENTER,,,,,,,
NA,NA,"5665 PEACHTREE DUNWOODY ROAD, ATLANTA, GA 30342","SAINT JOSEPH'S HOSPITAL OF ATLANTA, INC",,,,,,,
-84.40,33.81,"1968 PEACHTREE RD NW, ATLANTA, GA 30309",PIEDMONT HOSPITAL,,,,,,,
-84.02,33.96,"1000 MEDICAL CENTER BOULEVARD, LAWRENCEVILLE, GA 30045",GWINNETT MEDICAL CENTER,,,,,,,
-83.64,32.83,"777 HEMLOCK STREET, MACON, GA 31201",MEDICAL CENTER OF CENTRAL GEORGIA,,,,,,,
-83.29,30.86,"2501 NORTH PATTERSON STREET, PO BOX 1727, VALDOSTA, GA 31603",SOUTH GEORGIA MEDICAL CENTER,,,,,,,
-82.95,32.53,"200 INDUSTRIAL BOULEVARD, DUBLIN, GA 31021",FAIRVIEW PARK HOSPITAL,,,,,,,
-84.96,32.51,"2122 MANCHESTER EXPRESSWAY, COLUMBUS, GA 31995","ST FRANCIS HOSPITAL, INC",,,,,,,
-84.60,33.86,"3950 AUSTELL RD, AUSTELL, GA 30106",WELLSTAR COBB HOSPITAL,,,,,,,
-83.62,32.85,"350 HOSPITAL DRIVE, MACON, GA 31217",COLISEUM MEDICAL CENTER,,,,,,,
-85.19,34.28,"501 REDMOND ROAD, ROME, GA 30165",REDMOND REGIONAL MEDICAL CENTER,,,,,,,
-82.09,33.48,"3651 WHEELER ROAD, AUGUSTA, GA 30909",DOCTORS HOSPITAL,,,,,,,
-84.23,33.51,"1133 EAGLE'S LANDING PARKWAY, STOCKBRIDGE, GA 30281","HENRY MEDICAL CENTER, INC",,,,,,,
-84.51,33.45,"1255 HIGHWAY 54 WEST, FAYETTEVILLE, GA 30214",PIEDMONT FAYETTE HOSPITAL,,,,,,,
-157.85,21.31,"1301 PUNCHBOWL ST, HONOLULU, HI 96813",THE QUEENS MEDICAL CENTER,,,,,,,
-114.50,42.59,"801 POLE LINE ROAD WEST, TWIN FALLS, ID 83301",ST LUKES MAGIC VALLEY RMC,,,,,,,
-116.19,43.61,"190 EAST BANNOCK STREET, BOISE, ID 83712",ST LUKES REGIONAL MEDICAL CENTER,,,,,,,
-116.26,43.61,"1055 NORTH CURTIS ROAD, BOISE, ID 83706",ST ALPHONSUS REGIONAL MEDICAL CENTER,,,,,,,
-111.99,43.47,"3100 CHANNING WAY, IDAHO FALLS, ID 83404",EASTERN IDAHO REGIONAL MEDICAL CENTER,,,,,,,
-112.42,42.87,"777 HOSPITAL WAY, POCATELLO, ID 83201",PORTNEUF MEDICAL CENTER,,,,,,,
-116.79,47.70,"2003 KOOTENAI HEALTH WAY, COEUR D'ALENE, ID 83814",KOOTENAI MEDICAL CENTER,,,,,,,
-88.14,41.53,"333 N MADISON, JOLIET, IL 60435",PROVENA ST JOSEPH MEDICAL CENTER,,,,,,,
-87.84,41.91,"701 WEST NORTH AVE, MELROSE PARK, IL 60160",LOYOLA GOTTLIEB MEMORIAL HOSPITAL,,,,,,,
-87.68,42.07,"2650 RIDGE AVE, EVANSTON, IL 60201",EVANSTON HOSPITAL,,,,,,,
-89.59,40.75,"5409 N KNOXVILLE AVE, PEORIA, IL 61614",PROCTOR HOSPITAL,,,,,,,
-91.40,39.94,"BROADWAY AT 11TH STREET, QUINCY, IL 62301",BLESSING HOSPITAL,,,,,,,
-88.27,41.73,"2000 OGDEN AVENUE, AURORA, IL 60504",COPLEY MEMORIAL HOSPITAL,,,,,,,
-88.34,42.06,"1425 NORTH RANDALL ROAD, ELGIN, IL 60123",SHERMAN HOSPITAL,,,,,,,
-90.37,40.96,"695 N KELLOGG ST, GALESBURG, IL 61401",GALESBURG COTTAGE HOSPITAL,,,,,,,
-89.70,41.80,"100 EAST LEFEVRE ROAD, STERLING, IL 61081",CGH MEDICAL CENTER,,,,,,,
-88.91,38.32,"605 N 12TH STREET, MOUNT VERNON, IL 62864",GOOD SAMARITAN REGIONAL HLTH CENTER,,,,,,,
-89.64,39.81,"800 E CARPENTER ST, SPRINGFIELD, IL 62769",ST JOHNS HOSPITAL,,,,,,,
-87.79,41.83,"3249 SOUTH OAK PARK AVENUE, BERWYN, IL 60402",MACNEAL  HOSPITAL,,,,,,,
-87.81,41.67,"12251 SOUTH 80TH AVENUE, PALOS HEIGHTS, IL 60463",PALOS COMMUNITY HOSPITAL,,,,,,,
-87.89,41.80,"5101 S WILLOW SPRINGS RD, LA GRANGE, IL 60525",ADVENTIST LA GRANGE MEMORIAL HOSPITAL,,,,,,,
-89.59,40.70,"530 NE GLEN OAK AVE, PEORIA, IL 61637",SAINT FRANCIS MEDICAL CENTER,,,,,,,
-87.68,42.02,"355 RIDGE AVE, EVANSTON, IL 60202",RHC ST FRANCIS HOSPITAL,,,,,,,
-88.21,40.12,"611 WEST PARK STREET, URBANA, IL 61801",CARLE FOUNDATION HOSPITAL,,,,,,,
-88.23,40.12,"1400 WEST PARK AVENUE, URBANA, IL 61801",PROVENA COVENANT MEDICAL CENTER- URBANA,,,,,,,
-87.70,41.98,"5145 N CALIFORNIA AVE, CHICAGO, IL 60625",SWEDISH COVENANT HOSPITAL,,,,,,,
-88.28,42.32,"4201 MEDICAL CENTER DRIVE, MCHENRY, IL 60050",CENTEGRA HEALTH SYSTEM - MC HENRY HOSPITAL,,,,,,,
-87.81,41.99,"7435 W TALCOTT AVENUE, CHICAGO, IL 60631",RESURRECTION MEDICAL CENTER,,,,,,,
-87.67,41.87,"1653 WEST CONGRESS PARKWAY, CHICAGO, IL 60612",RUSH UNIVERSITY MEDICAL CENTER,,,,,,,
-88.99,40.50,"1304 FRANKLIN AVENUE, NORMAL, IL 61761",BROMENN HEALTHCARE,,,,,,,
-88.96,39.87,"2300 NORTH EDWARD STREET, DECATUR, IL 62526",DECATUR MEMORIAL HOSPITAL,,,,,,,
-89.66,39.81,"701 N FIRST ST, SPRINGFIELD, IL 62781",MEMORIAL MEDICAL CENTER,,,,,,,
-88.96,40.48,"2200 E WASHINGTON, BLOOMINGTON, IL 61701",ST JOSEPH MEDICAL CENTER,,,,,,,
-89.22,37.73,"405 W JACKSON, CARBONDALE, IL 62902",MEMORIAL HOSPITAL OF CARBONDALE,,,,,,,
-88.94,39.83,"1800 E LAKE SHORE DR, DECATUR, IL 62521",ST MARYS HOSPITAL,,,,,,,
-87.71,41.52,"20201 S CRAWFORD AVENUE, OLYMPIA FIELDS, IL 60461",FRANCISCAN ST JAMES HEALTH,,,,,,,
-88.40,42.28,"3701 DOTY ROAD, WOODSTOCK, IL 60098",CENTEGRA HEALTH SYSTEM - WOODSTOCK HOSPITAL,,,,,,,
-89.00,37.74,"3333 W DE YOUNG, MARION, IL 62959",HEARTLAND REGIONAL MEDICAL CENTER,,,,,,,
-90.02,38.55,"4500 MEMORIAL DRIVE, BELLEVILLE, IL 62226",MEMORIAL HOSPITAL,,,,,,,
-87.88,41.12,"350 N WALL ST, KANKAKEE, IL 60901",RIVERSIDE MEDICAL CENTER,,,,,,,
-89.99,38.51,"211 S THIRD ST, BELLEVILLE, IL 62220",ST ELIZABETH HOSPITAL,,,,,,,
-88.27,39.49,"1000 HEALTH CENTER DRIVE P O BOX 372, MATTOON, IL 61938",SARAH BUSH LINCOLN HEALTH CENTER,,,,,,,
-87.66,41.61,"ONE INGALLS DRIVE, HARVEY, IL 60426",INGALLS MEMORIAL HOSPITAL,,,,,,,
-87.94,41.86,"155 EAST BRUSH HILL ROAD, ELMHURST, IL 60126",ELMHURST MEMORIAL HOSPITAL,,,,,,,
-87.95,42.27,"801 S MILWAUKEE AVE, LIBERTYVILLE, IL 60048",ADVOCATE CONDELL MEDICAL CENTER,,,,,,,
-87.73,41.72,"4440 W 95TH STREET, OAK LAWN, IL 60453",ADVOCATE CHRIST HOSPITAL & MEDICAL CENTER,,,,,,,
-89.60,40.70,"221 N E GLEN OAK AVE, PEORIA, IL 61636",METHODIST MEDICAL CENTER OF ILLINOIS,,,,,,,
-88.34,41.89,"300 RANDALL RD, GENEVA, IL 60134",DELNOR COMMUNITY HOSPITAL,,,,,,,
-87.85,42.04,"1775 DEMPSTER ST, PARK RIDGE, IL 60068",ADVOCATE LUTHERAN GENERAL HOSPITAL,,,,,,,
-89.07,42.27,"1401 EAST STATE STREET, ROCKFORD, IL 61104",SWEDISH AMERICAN HOSPITAL,,,,,,,
-88.15,41.76,"801 SOUTH WASHINGTON, NAPERVILLE, IL 60540",EDWARD HOSPITAL,,,,,,,
-89.01,42.27,"5666 EAST STATE STREET, ROCKFORD, IL 61108",SAINT ANTHONY MEDICAL CENTER,,,,,,,
-89.10,42.30,"2400 NORTH ROCKTON AVENUE, ROCKFORD, IL 61103",ROCKFORD MEMORIAL HOSPITAL,,,,,,,
-87.98,42.07,"800 W CENTRAL ROAD, ARLINGTON HEIGH, IL 60005",NORTHWEST COMMUNITY HOSPITAL,,,,,,,
-88.02,42.00,"800 W BIESTERFIELD RD, ELK GROVE VILLA, IL 60007",ALEXIAN BROTHERS MEDICAL CENTER,,,,,,,
-90.57,41.48,"2701 17TH ST, ROCK ISLAND, IL 61201",TRINITY ROCK ISLAND,,,,,,,
-87.62,41.89,"251 E HURON ST, CHICAGO, IL 60611",NORTHWESTERN MEMORIAL HOSPITAL,,,,,,,
-88.01,41.82,"3815 HIGHLAND AVENUE, DOWNERS GROVE, IL 60515",ADVOCATE GOOD SAMARITAN HOSPITAL,,,,,,,
-88.12,42.19,"450 WEST HIGHWAY 22, BARRINGTON, IL 60010",ADVOCATE GOOD SHEPHERD HOSPITAL,,,,,,,
-87.36,41.60,"600 GRANT ST, GARY, IN 46402",METHODIST HOSPITALS INC,,,,,,,
NA,NA,"1220 MISSOURI AVE, JEFFERSONVILLE, IN 47130",CLARK MEMORIAL HOSPITAL,,,,,,,
-86.17,41.71,"5215 HOLY CROSS PKWY, MISHAWAKA, IN 46545",SAINT JOSEPH REGIONAL MEDICAL CENTER,,,,,,,
-86.90,41.71,"301 W HOMER ST, MICHIGAN CITY, IN 46360",FRANCISCAN ST ANTHONY HEALTH - MICHIGAN CITY,,,,,,,
-85.25,41.04,"7950 W JEFFERSON BLVD, FORT WAYNE, IN 46804",LUTHERAN HOSPITAL OF INDIANA,,,,,,,
-85.99,41.68,"600 E BLVD, ELKHART, IN 46514",ELKHART GENERAL HOSPITAL,,,,,,,
-85.10,41.19,"11109 PARKVIEW PLAZA DRIVE, FORT WAYNE, IN 46805",PARKVIEW REGIONAL MEDICAL CENTER,,,,,,,
-87.41,39.49,"1606 N SEVENTH ST, TERRE HAUTE, IN 47804",UNION HOSPITAL INC,,,,,,,
-85.83,41.56,"200 HIGH PARK AVE, GOSHEN, IN 46526",IU HEALTH GOSHEN HOSPITAL,,,,,,,
-87.26,41.51,"1500 S LAKE PARK AVE, HOBART, IN 46342",ST MARY MEDICAL CENTER INC,,,,,,,
-87.05,41.47,"814 LAPORTE AVE, VALPARAISO, IN 46383",PORTER VALPARAISO HOSPITAL,,,,,,,
-87.53,38.67,"520 S 7TH ST, VINCENNES, IN 47591",GOOD SAMARITAN HOSPITAL,,,,,,,
-85.83,38.30,"1850 STATE ST, NEW ALBANY, IN 47150",FLOYD MEMORIAL HOSPITAL AND HEALTH SERVICES,,,,,,,
-87.41,39.42,"3901 S SEVENTH ST, TERRE HAUTE, IN 47802",TERRE HAUTE REGIONAL HOSPITAL,,,,,,,
-84.88,39.86,"1100 REID PKWY, RICHMOND, IN 47374",REID HOSPITAL & HEALTH CARE SERVICES,,,,,,,
-86.54,39.16,"601 W SECOND ST, BLOOMINGTON, IN 47403",INDIANA UNIVERSITY HEALTH BLOOMINGTON HOSPITAL,,,,,,,
-86.16,39.79,"1701 N SENATE BLVD, INDIANAPOLIS, IN 46206",INDIANA UNIVERSITY HEALTH,,,,,,,
-86.25,41.68,"615 N MICHIGAN ST, SOUTH BEND, IN 46601",MEMORIAL HOSPITAL OF SOUTH BEND,,,,,,,
-86.02,40.05,"395 WESTFIELD RD, NOBLESVILLE, IN 46060",RIVERVIEW HOSPITAL,,,,,,,
-87.57,37.98,"600 MARY ST, EVANSVILLE, IN 47747",DEACONESS HOSPITAL INC,,,,,,,
-86.20,39.91,"2001 W 86TH ST, INDIANAPOLIS, IN 46260",ST VINCENT HOSPITAL & HEALTH SERVICES,,,,,,,
-85.68,40.10,"2015 JACKSON ST, ANDERSON, IN 46016",SAINT JOHN'S HEALTH SYSTEM,,,,,,,
NA,NA,"2401 UNIVERSITY AVE, MUNCIE, IN 47303",INDIANA UNIVERSITY HEALTH BALL MEMORIAL HOSPITAL,,,,,,,
-87.52,41.49,"24 JOLIET ST, DYER, IN 46311",FRANCISCAN ST MARGARET HEALTH - DYER,,,,,,,
-87.50,37.96,"3700 WASHINGTON AVE, EVANSVILLE, IN 47750",ST MARY'S MEDICAL CENTER OF EVANSVILLE INC,,,,,,,
-86.83,40.39,"1701 S CREASY LN, LAFAYETTE, IN 47905",FRANCISCAN ST ELIZABETH HEALTH - LAFAYETTE EAST,,,,,,,
-85.90,39.22,"2400 E 17TH ST, COLUMBUS, IN 47201",COLUMBUS REGIONAL HOSPITAL,,,,,,,
-86.94,38.39,"800 W 9TH ST, JASPER, IN 47546",MEMORIAL HOSPITAL AND HEALTH CARE CENTER,,,,,,,
-87.51,41.55,"901 MACARTHUR BLVD, MUNSTER, IN 46321",COMMUNITY HOSPITAL,,,,,,,
-87.37,41.40,"1201 S MAIN ST, CROWN POINT, IN 46307",FRANCISCAN ST ANTHONY HEALTH - CROWN POINT,,,,,,,
-86.13,39.64,"1402 E COUNTY LINE RD S, INDIANAPOLIS, IN 46227",COMMUNITY HOSPITAL SOUTH,,,,,,,
-86.16,39.94,"10580 N MERIDIAN ST, INDIANAPOLIS, IN 46290",ST VINCENT HEART CENTER OF INDIANA LLC,,,,,,,
-86.04,39.90,"8075 N SHADELAND AVE, INDIANAPOLIS, IN 46250",INDIANA HEART HOSPITAL THE,,,,,,,
-86.08,39.65,"8111 S EMERSON AVE, INDIANAPOLIS, IN 46237",FRANCISCAN ST FRANCIS HEALTH - INDIANAPOLIS,,,,,,,
-86.57,39.12,"4011 S MONROE MEDICAL PARK BLVD, BLOOMINGTON, IN 47403",MONROE HOSPITAL,,,,,,,
-86.81,40.40,"5165 MCCARTY LN, LAFAYETTE, IN 47905",INDIANA UNIVERSITY HEALTH ARNETT HOSPITAL,,,,,,,
-87.44,37.97,"4007 GATEWAY BLVD, NEWBURGH, IN 47630",THE HEART HOSPITAL AT DEACONESS GATEWAY LLC,,,,,,,
-94.19,42.49,"802 KENYON RD, FORT DODGE, IA 50501",TRINITY REGIONAL MEDICAL CENTER,,,,,,,
-90.56,41.54,"1227 EAST RUSHOLME STREET, DAVENPORT, IA 52803",GENESIS MEDICAL CENTER-DAVENPORT,,,,,,,
-91.66,41.99,"1026 A AVE NE, CEDAR RAPIDS, IA 52402",ST LUKES HOSPITAL,,,,,,,
-95.83,41.27,"933 EAST PIERCE STREET, COUNCIL BLUFFS, IA 51503",JENNIE EDMUNDSON HOSPITAL,,,,,,,
-91.17,40.81,"1221 SOUTH GEAR AVENUE, WEST BURLINGTON, IA 52655",GREAT RIVER MEDICAL CENTER,,,,,,,
-91.55,41.66,"200 HAWKINS DRIVE, IOWA CITY, IA 52242",UNIVERSITY OF IOWA HOSPITAL & CLINICS,,,,,,,
-93.22,43.15,"1000 FOURTH STREET SW, MASON CITY, IA 50401",MERCY MEDICAL CENTER-NORTH IOWA,,,,,,,
-90.67,42.49,"250 MERCY DRIVE, DUBUQUE, IA 52001",MERCY MEDICAL CENTER-DUBUQUE,,,,,,,
-91.66,41.98,"701 10TH STREET SE, CEDAR RAPIDS, IA 52403",MERCY MEDICAL CENTER - CEDAR RAPIDS,,,,,,,
-90.19,41.86,"1410 NORTH 4TH STREET, CLINTON, IA 52732",MERCY MEDICAL CENTER-CLINTON,,,,,,,
-93.63,41.59,"1200 PLEASANT STREET, DES MOINES, IA 50309",IOWA METHODIST MEDICAL CENTER,,,,,,,
-93.62,41.60,"1111 6TH AVE, DES MOINES, IA 50314",MERCY MEDICAL CENTER-DES MOINES,,,,,,,
-92.34,42.53,"1825 LOGAN AVENUE, WATERLOO, IA 50703",ALLEN MEMORIAL HOSPITAL,,,,,,,
-102.86,42.10,"801 5TH ST BOX #316B, SIOUX CITY, IA 51101",MERCY MEDICAL CENTER-SIOUX CITY,,,,,,,
-97.61,38.83,"400 SOUTH SANTA FE AVENUE, SALINA, KS 67401",SALINA REGIONAL HEALTH CENTER,,,,,,,
-99.30,38.88,"2220 CANTERBURY DRIVE, HAYS, KS 67601",HAYS MEDICAL CENTER,,,,,,,
-95.70,39.06,"1700 SW 7TH STREET, TOPEKA, KS 66606",ST FRANCIS HEALTH CENTER INC,,,,,,,
-97.89,38.08,"1701 E 23RD AVENUE, HUTCHINSON, KS 67502",HUTCHINSON REGIONAL MEDICAL CENTER INC,,,,,,,
-94.61,39.06,"3901 RAINBOW BLVD, KANSAS CITY, KS 66160",UNIVERSITY OF KANSAS HOSPITAL,,,,,,,
-94.82,38.85,"20375 W 151ST ST #303, OLATHE, KS 66061",OLATHE MEDICAL CENTER,,,,,,,
-95.70,39.05,"1500 SW 10TH ST, TOPEKA, KS 66604",STORMONT-VAIL HEALTHCARE,,,,,,,
-94.69,39.00,"9100 W 74TH STREET, SHAWNEE MISSION, KS 66204",SHAWNEE MISSION MEDICAL CENTER,,,,,,,
-97.33,37.70,"929 N ST FRANCIS ST, WICHITA, KS 67214",VIA CHRISTI HOSPITALS WICHITA INC,,,,,,,
-97.30,37.70,"550 N HILLSIDE ST, WICHITA, KS 67214",WESLEY MEDICAL CENTER,,,,,,,
-96.60,39.20,"1823 COLLEGE AVE, MANHATTAN, KS 66502",MERCY REGIONAL HEALTH CENTER,,,,,,,
-94.65,38.91,"5721 WEST 119TH STREET, OVERLAND PARK, KS 66209",MENORAH MEDICAL CENTER,,,,,,,
-97.23,37.75,"3601 NORTH WEBB ROAD, WICHITA, KS 67226",KANSAS HEART HOSPITAL,,,,,,,
-97.26,37.73,"2610 N WOODLAWN, WICHITA, KS 67220",GALICHIA HEART HOSPITAL LLC,,,,,,,
-94.65,38.93,"10720 NALL AVENUE, OVERLAND PARK, KS 66211",HEARTLAND SURGICAL SPEC HOSPITAL,,,,,,,
-97.15,37.72,"1124 WEST 21ST STREET, ANDOVER, KS 67002",KANSAS MEDICAL CENTER LLC,,,,,,,
-82.63,38.47,"2201 LEXINGTON AVENUE, ASHLAND, KY 41101",KING'S DAUGHTERS' MEDICAL CENTER,,,,,,,
-84.52,38.03,"ONE SAINT JOSEPH DRIVE, LEXINGTON, KY 40504",SAINT JOSEPH HOSPITAL,,,,,,,
-85.88,37.71,"913 NORTH DIXIE AVENUE, ELIZABETHTOWN, KY 42701",HARDIN MEMORIAL HOSPITAL,,,,,,,
-86.43,37.00,"250 PARK STREET, BOWLING GREEN, KY 42101",THE MEDICAL CENTER AT BOWLING GREEN,,,,,,,
-88.31,36.61,"803 POPLAR STREET, MURRAY, KY 42071",MURRAY-CALLOWAY COUNTY HOSPITAL,,,,,,,
-84.50,39.07,"401 EAST 20TH STREET, COVINGTON, KY 41014",ST ELIZABETH MEDICAL CENTER NORTH,,,,,,,
-87.10,37.77,"811 EAST PARRISH AVENUE, OWENSBORO, KY 42303",OWENSBORO MEDICAL HEALTH SYSTEM,,,,,,,
-85.75,38.25,"200 ABRAHAM FLEXNER WAY, LOUISVILLE, KY 40202",JEWISH HOSPITAL & ST MARY'S HEALTHCARE,,,,,,,
-82.53,37.47,"911 BYPASS ROAD, PIKEVILLE, KY 41501",PIKEVILLE MEDICAL CENTER,,,,,,,
-84.77,37.64,"217 SOUTH THIRD STREET, DANVILLE, KY 40422",EPHRAIM MCDOWELL REGIONAL MEDICAL CENTER,,,,,,,
-87.50,36.86,"320 WEST 18TH STREET, HOPKINSVILLE, KY 42240",JENNIE STUART MEDICAL CENTER,,,,,,,
-84.51,38.03,"HOSPITAL ADMINISTRATION, LEXINGTON, KY 40536",UNIVERSITY OF KENTUCKY HOSPITAL,,,,,,,
-85.75,38.25,"200 EAST CHESTNUT STREET, LOUISVILLE, KY 40202","NORTON HOSPITALS, INC",,,,,,,
-88.65,37.05,"1530 LONE OAK ROAD, PADUCAH, KY 42001",LOURDES HOSPITAL,,,,,,,
-84.51,38.02,"1740 NICHOLASVILLE ROAD, LEXINGTON, KY 40503",CENTRAL BAPTIST HOSPITAL,,,,,,,
-88.63,37.07,"2501 KENTUCKY AVENUE, PADUCAH, KY 42003",WESTERN BAPTIST HOSPITAL,,,,,,,
-85.64,38.24,"4000 KRESGE WAY, LOUISVILLE, KY 40207",BAPTIST HOSPITAL EAST,,,,,,,
-84.62,37.09,"305 LANGDON STREET, P O BOX 620, SOMERSET, KY 42502",LAKE CUMBERLAND REGIONAL HOSPITAL,,,,,,,
-92.02,30.20,"1214 COOLIDGE AVENUE, LAFAYETTE, LA 70503",LAFAYETTE GENERAL MEDICAL CENTER,,,,,,,
-90.81,29.78,"602 N ACADIA ROAD, THIBODAUX, LA 70301",THIBODAUX REGIONAL MEDICAL CENTER,,,,,,,
-90.71,29.60,"8166 MAIN STREET, HOUMA, LA 70360",TERREBONNE GENERAL MEDICAL CENTER,,,,,,,
-90.46,30.47,"15790 PAUL VEGA MD DRIVE, HAMMOND, LA 70403","NORTH OAKS MEDICAL CENTER, LLC",,,,,,,
-92.46,31.28,"3330 MASONIC DRIVE, ALEXANDRIA, LA 71301",CHRISTUS ST FRANCES CABRINI HOSPITAL,,,,,,,
-92.45,31.32,"211 4TH STREET, ALEXANDRIA, LA 71301",RAPIDES REGIONAL MEDICAL CENTER,,,,,,,
-93.23,30.22,"524 DR MICHAEL DEBAKEY STREET, LAKE CHARLES, LA 70601",CHRISTUS ST PATRICK HOSPITAL,,,,,,,
-90.15,29.96,"1516 JEFFERSON HWY, NEW ORLEANS, LA 70121",OCHSNER FOUNDATION HOSPITAL,,,,,,,
-90.09,29.89,"1101 MEDICAL CENTER BLVD, MARRERO, LA 70072",WEST JEFFERSON MEDICAL CENTER,,,,,,,
-89.77,30.28,"1001 GAUSE BLVD, SLIDELL, LA 70458",SLIDELL MEMORIAL HOSPITAL AND MEDICAL CENTER,,,,,,,
-93.75,32.50,"ONE ST MARY PLACE, SHREVEPORT, LA 71101",CHRISTUS SCHUMPERT HEALTH SYSTEM,,,,,,,
-90.11,30.47,"1202 S TYLER STREET, COVINGTON, LA 70433",ST TAMMANY PARISH HOSPITAL,,,,,,,
-90.09,29.93,"1401 FOUCHER STREET, NEW ORLEANS, LA 70115",TOURO INFIRMARY,,,,,,,
-93.20,30.20,"1701 OAK PARK BLVD, LAKE CHARLES, LA 70601",LAKE CHARLES MEMORIAL HOSPITAL,,,,,,,
-91.11,30.40,"5000 HENNESSY BLVD, BATON ROUGE, LA 70808",OUR LADY OF THE LAKE REGIONAL MEDICAL CENTER,,,,,,,
-91.15,30.45,"3600 FLORIDA STREET, BATON ROUGE, LA 70806",BATON ROUGE GENERAL MEDICAL CENTER,,,,,,,
-92.04,30.15,"4801 AMBASSADOR CAFFERY PARKWAY, LAFAYETTE, LA 70508","OUR LADY OF LOURDES REGIONAL MEDICAL CENTER, INC",,,,,,,
-93.78,32.48,"2600 GREENWOOD ROAD, SHREVEPORT, LA 71103",WILLIS KNIGHTON MEDICAL CENTER,,,,,,,
-92.11,32.50,"309 JACKSON STREET, MONROE, LA 71201",ST FRANCIS MEDICAL CENTER,,,,,,,
-90.18,30.01,"4200 HOUMA BLVD, METAIRIE, LA 70006",EAST JEFFERSON GENERAL HOSPITAL,,,,,,,
-92.16,32.51,"503 MCMILLAN ROAD, WEST MONROE, LA 71291",GLENWOOD REGIONAL MEDICAL CENTER,,,,,,,
-90.08,30.41,"95 EAST FAIRWAY CENTER DRIVE, COVINGTON, LA 70433",LAKEVIEW REGIONAL MEDICAL CENTER,,,,,,,
-92.08,30.20,"2810 AMBASSADOR CAFFERY PARKWAY, LAFAYETTE, LA 70506",THE REGIONAL MEDICAL CENTER OF ACADIANA,,,,,,,
-89.92,30.36,"64030 HIGHWAY 434, LACOMBE, LA 70445","LOUISIANA MEDICAL CENTER AND HEART HOSPITAL, LLC",,,,,,,
-92.03,30.17,"1105 KALISTE SALOOM ROAD, LAFAYETTE, LA 70508",HEART HOSPITAL OF LAFAYETTE,,,,,,,
-70.28,43.65,"22 BRAMHALL ST, PORTLAND, ME 4102",MAINE MEDICAL CENTER,,,,,,,
NA,NA,"300 MAIN STREET, LEWISTON, ME 4240",CENTRAL MAINE MEDICAL CENTER,,,,,,,
-68.75,44.81,"489 STATE ST, PO BOX 404, BANGOR, ME 4401",EASTERN MAINE MEDICAL CENTER,,,,,,,
-77.69,39.62,"11116 MEDICAL CAMPUS ROAD, HAGERSTOWN, MD 21742",MERITUS MEDICAL CENTER,,,,,,,
-77.03,39.01,"1500 FOREST GLEN ROAD, SILVER SPRING, MD 20910",HOLY CROSS HOSPITAL,,,,,,,
-77.42,39.42,"400 WEST SEVENTH ST, FREDERICK, MD 21701",FREDERICK MEMORIAL HOSPITAL,,,,,,,
-76.61,39.39,"7601 OSLER DRIVE, TOWSON, MD 21204",SAINT JOSEPH MEDICAL CENTER,,,,,,,
-76.61,39.29,"301 ST PAUL PLACE, BALTIMORE, MD 21202",MERCY MEDICAL CENTER INC,,,,,,,
-76.59,39.30,"600 NORTH  WOLFE STREET, BALTIMORE, MD 21287","JOHNS HOPKINS HOSPITAL, THE",,,,,,,
-73.91,40.62,"WILKENS & CATON AVENUES, BALTIMORE, MD 21229",SAINT AGNES HOSPITAL,,,,,,,
-76.48,39.35,"9000 FRANKLIN SQUARE DR, BALTIMORE, MD 21237",FRANKLIN SQUARE HOSPITAL CENTER,,,,,,,
-75.60,38.36,"100 E CARROLL AVE, SALISBURY, MD 21801",PENINSULA REGIONAL MEDICAL CENTER,,,,,,,
-77.11,39.00,"8600 OLD GEORGETOWN RD, BETHESDA, MD 20814",SUBURBAN HOSPITAL,,,,,,,
-76.53,38.99,"2001 MEDICAL PARKWAY, ANNAPOLIS, MD 21401",ANNE ARUNDEL MEDICAL CENTER,,,,,,,
-78.73,39.65,"12500 WILLOWBROOK ROAD, CUMBERLAND, MD 21502",WESTERN MARYLAND REGIONAL MEDICAL CENTER,,,,,,,
-76.55,39.29,"4940 EASTERN AVENUE, BALTIMORE, MD 21224",JOHNS HOPKINS BAYVIEW MEDICAL CENTER,,,,,,,
-75.83,39.61,"106 BOW STREET, ELKTON, MD 21921",UNION HOSPITAL OF CECIL COUNTY,,,,,,,
-76.99,39.56,"200 MEMORIAL AVE, WESTMINSTER, MD 21157",CARROLL HOSPITAL CENTER,,,,,,,
-76.62,39.14,"301 HOSPITAL DR, GLEN BURNIE, MD 21061",BALTIMORE WASHINGTON  MEDICAL CENTER,,,,,,,
-76.62,39.39,"6701 NORTH  CHARLES STREET, BALTIMORE, MD 21204",GREATER BALTIMORE MEDICAL CENTER,,,,,,,
-76.88,39.21,"5755 CEDAR LANE, COLUMBIA, MD 21044",HOWARD COUNTY GENERAL HOSPITAL,,,,,,,
-76.35,39.52,"500 UPPER CHESAPEAKE DRIVE, BEL AIR, MD 21014",UPPER CHESAPEAKE MEDICAL CENTER,,,,,,,
-76.59,39.36,"5601 LOCH RAVEN BLVD, BALTIMORE, MD 21239",GOOD SAMARITAN HOSPITAL,,,,,,,
-77.20,39.10,"9901 MEDICAL CTR DR, ROCKVILLE, MD 20850",SHADY GROVE ADVENTIST HOSPITAL,,,,,,,
-71.76,42.54,"60 HOSPITAL ROAD, LEOMINSTER, MA 1453","HEALTHALLIANCE HOSPITALS, INC",,,,,,,
-71.28,41.94,"211 PARK STREET, ATTLEBORO, MA 2703",STURDY MEMORIAL HOSPITAL,,,,,,,
-70.27,41.65,"88 LEWIS BAY ROAD, HYANNIS, MA 2601",CAPE COD HOSPITAL,,,,,,,
-70.88,42.56,"85 HERRICK STREET, BEVERLY, MA 1915",BEVERLY HOSPITAL CORPORATION,,,,,,,
-70.91,42.51,"81 HIGHLAND AVENUE, SALEM, MA 1970",NORTH SHORE MEDICAL CENTER,,,,,,,
-73.25,42.46,"725 NORTH STREET, PITTSFIELD, MA 1201",BERKSHIRE MEDICAL CENTER INC,,,,,,,
-70.65,41.94,"275 SANDWICH STREET, PLYMOUTH, MA 2360",JORDAN HOSPITAL INC,,,,,,,
-71.34,42.65,"295 VARNUM AVENUE, LOWELL, MA 1854",LOWELL GENERAL HOSPITAL,,,,,,,
-71.07,42.36,"55 FRUIT STREET, BOSTON, MA 2114",MASSACHUSETTS GENERAL HOSPITAL,,,,,,,
-71.15,41.71,"363 HIGHLAND AVENUE, FALL RIVER, MA 2720","SOUTHCOAST HOSPITAL GROUP, INC",,,,,,,
-72.60,42.12,"759 CHESTNUT STREET, SPRINGFIELD, MA 1199",BAYSTATE MEDICAL CENTER,,,,,,,
-71.17,42.73,"70 EAST STREET, METHUEN, MA 1844",HOLY FAMILY HOSPITAL,,,,,,,
-71.30,42.65,"1 HOSPITAL DRIVE, LOWELL, MA 1852",SAINTS  MEDICAL CENTER INC,,,,,,,
-71.11,42.34,"330 BROOKLINE AVENUE, BOSTON, MA 2215",BETH ISRAEL DEACONESS MEDICAL CENTER,,,,,,,
-70.95,42.18,"55 FOGG ROAD, SOUTH WEYMOUTH, MA 2190",SOUTH SHORE HOSPITAL,,,,,,,
-71.25,42.33,"2014 WASHINGTON STREET, NEWTON, MA 2462",NEWTON-WELLESLEY HOSPITAL,,,,,,,
-71.11,42.34,"75 FRANCIS STREET, BOSTON, MA 2115",BRIGHAM AND WOMEN'S HOSPITAL,,,,,,,
-71.06,42.10,"235 NORTH PEARL STREET, BROCKTON, MA 2301",GOOD SAMARITAN MEDICAL CENTER,,,,,,,
-71.08,42.33,"800 WASHINGTON STREET, BOSTON, MA 2111",TUFTS MEDICAL CENTER,,,,,,,
-71.21,42.17,"800 WASHINGTON STREET, NORWOOD, MA 2062",NORWOOD HOSPITAL,,,,,,,
-96.07,33.14,"67 & 100 TER HEUN DRIVE, FALMOUTH, MA 2540",FALMOUTH HOSPITAL,,,,,,,
-71.76,42.28,"55 LAKE AVENUE NORTH, WORCESTER, MA 1655",UMASS MEMORIAL MEDICAL CENTER INC,,,,,,,
-85.69,35.24,"41 & 45 MALL ROAD, BURLINGTON, MA 1803",LAHEY CLINIC HOSPITAL,,,,,,,
-71.42,42.29,"115 LINCOLN STREET, FRAMINGHAM, MA 1701",METROWEST MEDICAL CENTER,,,,,,,
-71.80,42.26,"123 SUMMER STREET, WORCESTER, MA 1608",ST VINCENT HOSPITAL,,,,,,,
-86.21,43.21,"1500 E SHERMAN BOULEVARD, MUSKEGON, MI 49444","MERCY HEALTH PARTNERS, MERCY CAMPUS",,,,,,,
-85.58,42.29,"601 JOHN STREET, KALAMAZOO, MI 49007",BRONSON METHODIST HOSPITAL,,,,,,,
-83.21,42.46,"16001 W NINE MILE RD, SOUTHFIELD, MI 48075",PROVIDENCE HOSPITAL AND MEDICAL CENTERS,,,,,,,
-83.21,42.29,"18101 OAKWOOD BLVD, DEARBORN, MI 48124",OAKWOOD HOSPITAL AND MEDICAL CENTER,,,,,,,
-86.48,42.09,"1234 NAPIER AVENUE, ST JOSEPH, MI 49085","LAKELAND HOSPITAL, ST JOSEPH",,,,,,,
-83.28,42.61,"44405 WOODWARD AVE, PONTIAC, MI 48341",ST JOSEPH MERCY OAKLAND,,,,,,,
-82.43,42.96,"2601 ELECTRIC AVENUE, PORT HURON, MI 48060",ST JOSEPH MERCY PORT HURON,,,,,,,
,,"1501 W CHISHOLM ST, ALPENA, MI 49707",ALPENA REGIONAL MEDICAL CENTER,,,,,,,
,,"100 MICHIGAN ST NE, GRAND RAPIDS, MI 49503",SPECTRUM HEALTH - BUTTERWORTH CAMPUS,,,,,,,
,,"1900 COLUMBUS AVE, BAY CITY, MI 48708",MCLAREN BAY REGION,,,,,,,
-83.73,42.28,"1500 E MEDICAL CENTER DRIVE, SPC 5474, ANN ARBOR, MI 48109",UNIVERSITY OF MICHIGAN HEALTH SYSTEM,,,,,,,
-82.96,42.61,"15855 NINETEEN MILE RD, CLINTON TOWNSHI, MI 48038",HENRY FORD MACOMB HOSPITAL,,,,,,,
-87.40,46.55,"420 W MAGNETIC, MARQUETTE, MI 49855",MARQUETTE GENERAL HOSPITAL,,,,,,,
-83.96,43.43,"1447 N HARRISON, SAGINAW, MI 48602","COVENANT MEDICAL CENTER, INC",,,,,,,
-85.18,42.33,"300 NORTH AVENUE, BATTLE CREEK, MI 49017",BRONSON BATTLE CREEK HOSPITAL,,,,,,,
-83.95,43.41,"800 S WASHINGTON AVENU, SAGINAW, MI 48601",ST MARY'S OF MICHIGAN MEDICAL CENTER,,,,,,,
-82.91,42.38,"468 CADIEUX RD, GROSSE POINTE, MI 48230","BEAUMONT HOSPITAL, GROSSE POINTE",,,,,,,
-84.39,42.25,"205 N EAST AVE, JACKSON, MI 49201",ALLEGIANCE HEALTH,,,,,,,
-85.64,44.76,"1105 SIXTH STREET, TRAVERSE CITY, MI 49684",MUNSON MEDICAL CENTER,,,,,,,
-83.06,42.35,"3990 JOHN R STREET, DETROIT, MI 48201",HARPER UNIVERSITY HOSPITAL,,,,,,,
-84.97,45.37,"416 CONNABLE AVE, PETOSKEY, MI 49770",NORTHERN MICHIGAN REGIONAL HOSPITAL,,,,,,,
-85.56,42.31,"1521 GULL ROAD, KALAMAZOO, MI 49048",BORGESS MEDICAL CENTER,,,,,,,
-83.19,42.51,"3601 W THIRTEEN MILE RD, ROYAL OAK, MI 48073",WILLIAM BEAUMONT HOSPITAL,,,,,,,
-83.73,43.01,"401 S BALLENGER HIGHWAY, FLINT, MI 48532",MCLAREN FLINT,,,,,,,
-83.15,42.21,"2333 BIDDLE AVE, WYANDOTTE, MI 48192",HENRY FORD WYANDOTTE HOSPITAL,,,,,,,
-83.32,42.45,"28050 GRAND RIVER AVENUE, FARMINGTON HILL, MI 48336",BOTSFORD HOSPITAL,,,,,,,
-83.65,42.27,"5301 E HURON RIVER DR, ANN ARBOR, MI 48106",ST JOSEPH MERCY HOSPITAL,,,,,,,
-82.91,42.42,"22101 MOROSS RD, DETROIT, MI 48236",ST JOHN HOSPITAL AND MEDICAL CENTER,,,,,,,
-84.55,42.70,"401 W GREENLAWN AVE, LANSING, MI 48910",MCLAREN - GREATER LANSING,,,,,,,
-83.00,42.51,"11800 EAST TWELVE MILE ROAD, WARREN, MI 48093",ST JOHN MACOMB-OAKLAND HOSPITAL-MACOMB CENTER,,,,,,,
-83.64,42.89,"ONE GENESYS PARKWAY, GRAND BLANC, MI 48439",GENESYS REGIONAL MEDICAL CENTER - HEALTH PARK,,,,,,,
-82.43,42.99,"1221 PINE GROVE AVE, PORT HURON, MI 48060",PORT HURON HOSPITAL,,,,,,,
-84.26,43.64,"4000 WELLNESS DRIVE, MIDLAND, MI 48670",MIDMICHIGAN MEDICAL CENTER-MIDLAND,,,,,,,
-82.90,42.59,"1000 HARRINGTON BLVD, MOUNT CLEMENS, MI 48043",MOUNT CLEMENS REGIONAL MEDICAL CENTER,,,,,,,
-84.54,42.73,"1215 E MICHIGAN AVENUE, LANSING, MI 48912",EDWARD W SPARROW HOSPITAL,,,,,,,
-85.72,42.85,"5900 BYRON CENTER AVENUE, SW, WYOMING, MI 49519",METRO HEALTH HOSPITAL,,,,,,,
-83.31,42.33,"6245 INKSTER RD, GARDEN CITY, MI 48135",GARDEN CITY HOSPITAL,,,,,,,
-83.15,42.68,"1101 W UNIVERSITY DRIVE, ROCHESTER, MI 48307",CRITTENTON HOSPITAL MEDICAL CENTER,,,,,,,
-83.09,42.62,"44201 DEQUINDRE ROAD, TROY, MI 48085",WILLIAM BEAUMONT HOSPITAL-TROY,,,,,,,
-83.50,42.59,"ONE WILLIAM CARLS DRIVE, COMMERCE TOWNSH, MI 48382",HURON VALLEY-SINAI HOSPITAL,,,,,,,
-93.32,45.01,"3300 OAKDALE NORTH, ROBBINSDALE, MN 55422",NORTH MEMORIAL MEDICAL CENTER,,,,,,,
-92.10,46.79,"407 E 3RD ST, DULUTH, MN 55805",ESSENTIA HEALTH ST MARY'S MEDICAL CENTER,,,,,,,
-92.48,44.02,"1216 SECOND STREET WEST, ROCHESTER, MN 55902",MAYO CLINIC - SAINT MARYS HOSPITAL,,,,,,,
-94.17,45.58,"1406 6TH AVE NORTH, SAINT CLOUD, MN 56303",ST CLOUD HOSPITAL,,,,,,,
-92.09,46.80,"915 E 1ST ST, DULUTH, MN 55805",ST LUKES HOSPITAL,,,,,,,
-93.36,44.93,"6500 EXCELSIOR BLVD, SAINT LOUIS PAR, MN 55426",PARK NICOLLET METHODIST HOSPITAL,,,,,,,
-93.25,44.95,"800 EAST 28TH STREET, MINNEAPOLIS, MN 55407",ABBOTT NORTHWESTERN HOSPITAL,,,,,,,
-93.10,44.95,"45 WEST 10TH STREET, SAINT PAUL, MN 55102",ST JOSEPH'S HOSPITAL,,,,,,,
-93.33,44.89,"6401 FRANCE AVENUE SOUTH, EDINA, MN 55435",FAIRVIEW SOUTHDALE HOSPITAL,,,,,,,
-95.05,45.12,"301 BECKER AVE SW, WILLMAR, MN 56201",RICE MEMORIAL HOSPITAL,,,,,,,
NA,NA,"1025 MARSH STREET BOX 8673, MANKATO, MN 56002",MAYO CLINIC HEALTH SYSTEM - MANKATO,,,,,,,
-94.90,47.50,"1300 ANNE ST NW, BEMIDJI, MN 56601",SANFORD BEMIDJI MEDICAL CENTER,,,,,,,
-93.09,44.96,"640 JACKSON STREET, SAINT PAUL, MN 55101",REGIONS HOSPITAL,,,,,,,
-93.37,45.18,"4050 COON RAPIDS BLVD, COON RAPIDS, MN 55433",MERCY HOSPITAL,,,,,,,
-90.17,32.33,"2500 N STATE ST, JACKSON, MS 39216",UNIVERSITY OF MISSISSIPPI MED CENTER,,,,,,,
-88.72,34.24,"830 S GLOSTER, TUPELO, MS 38801",NORTH MISSISSIPPI MEDICAL CENTER,,,,,,,
-88.56,34.94,"611 ALCORN DRIVE, CORINTH, MS 38834",MAGNOLIA REGIONAL HEALTH CENTER,,,,,,,
-89.12,30.37,"4500 13TH ST-P O BOX 1810, GULFPORT, MS 39502",MEMORIAL HOSPITAL AT GULFPORT,,,,,,,
-90.82,32.37,"2100 HWY 61 N, VICKSBURG, MS 39183",RIVER REGION HEALTH SYSTEM,,,,,,,
-89.52,34.35,"2301 SOUTH LAMAR, OXFORD, MS 38655",BAPTIST MEMORIAL HOSPITAL NORTH MS,,,,,,,
-88.53,30.37,"2809 DENNY AV, PASCAGOULA, MS 39581",SINGING RIVER HOSPITAL,,,,,,,
-90.16,32.33,"969 LAKELAND DR, JACKSON, MS 39216",ST DOMINIC-JACKSON MEMORIAL HOSPITAL,,,,,,,
-88.70,32.37,"1314 19TH AVE, MERIDIAN, MS 39301",RUSH FOUNDATION HOSPITAL,,,,,,,
-89.33,31.32,"6051 US HIGHWAY 49, HATTIESBURG, MS 39404",FORREST GENERAL HOSPITAL,,,,,,,
-89.37,31.33,"5001 W HARDY ST, HATTIESBURG, MS 39402",WESLEY MEDICAL CENTER,,,,,,,
-88.43,33.53,"2520 5TH ST N, COLUMBUS, MS 39701",BAPTIST MEM HOSP/GOLDEN TRIANGLE INC,,,,,,,
-96.77,33.02,"3901 W 15TH ST, PLANO, TX 75075",MEDICAL CENTER OF PLANO,,,,,,,
-90.18,32.31,"1225 N STATE ST, JACKSON, MS 39202",MISSISSIPPI BAPTIST MEDICAL CENTER,,,,,,,
-88.70,32.37,"2124 14 ST, MERIDIAN, MS 39301",ANDERSON REGIONAL MEDICAL CENTER,,,,,,,
-90.00,34.97,"7601 SOUTHCREST DR, SOUTHAVEN, MS 38671",BAPTIST MEMORIAL HOSPITAL DESOTO,,,,,,,
-94.53,37.06,"2817 ST JOHNS BLVD, JOPLIN, MO 64801",ST JOHN'S REGIONAL MEDICAL CENTER,,,,,,,
-90.48,38.78,"300 1ST CAPITOL DR, SAINT CHARLES, MO 63301",SSM ST JOSEPH HEALTH CENTER,,,,,,,
-94.77,39.77,"5325 FARAON STREET, SAINT JOSEPH, MO 64506",HEARTLAND REGIONAL MEDICAL CENTER,,,,,,,
-93.22,38.70,"601 E 14TH ST, SEDALIA, MO 65302",BOTHWELL REGIONAL HEALTH CENTER,,,,,,,
-90.45,38.65,"615 NEW BALLAS ROAD, SAINT LOUIS, MO 63141",MERCY HOSPITAL ST LOUIS,,,,,,,
-91.45,39.71,"6000 HOSPITAL DR, HANNIBAL, MO 63401",HANNIBAL REGIONAL HOSPITAL,,,,,,,
-94.56,39.01,"2316 E MEYER BLVD, KANSAS CITY, MO 64132",RESEARCH MEDICAL CENTER,,,,,,,
-90.26,38.64,"ONE BARNES-JEWISH HOSPITAL PLAZA, SAINT LOUIS, MO 63110",BARNES JEWISH HOSPITAL,,,,,,,
-93.28,37.14,"3801 SOUTH NATIONAL AVENUE, SPRINGFIELD, MO 65807",COX MEDICAL CENTER,,,,,,,
-92.18,38.57,"1125 MADISON ST, JEFFERSON CITY, MO 65102",CAPITAL REGION MEDICAL CENTER,,,,,,,
-93.27,37.18,"1235 E CHEROKEE, SPRINGFIELD, MO 65804",ST JOHN'S REGIONAL HEALTH CENTER,,,,,,,
-92.32,38.95,"1600 E BROADWAY, COLUMBIA, MO 65201",BOONE HOSPITAL CENTER,,,,,,,
-90.38,38.51,"10010 KENNERLY ROAD, SAINT LOUIS, MO 63128",ST ANTHONY'S MEDICAL CENTER,,,,,,,
-94.60,38.93,"1000 CARONDELET DR, KANSAS CITY, MO 64114",ST JOSEPH MEDICAL CENTER,,,,,,,
-90.31,38.63,"6420 CLAYTON RD, RICHMOND HEIGHT, MO 63117",SSM ST MARYS HEALTH CENTER,,,,,,,
-94.35,39.05,"19600 EAST 39TH STREET, INDEPENDENCE, MO 64057","CENTERPOINT MEDICAL CENTER OF INDEPENDENCE, LLC",,,,,,,
-94.55,39.15,"2800 CLAY EDWARDS DRIVE, NORTH KANSAS CI, MO 64116",NORTH KANSAS CITY HOSPITAL,,,,,,,
-90.43,38.75,"12303 DEPAUL DRIVE, BRIDGETON, MO 63044",SSM DEPAUL HEALTH CENTER,,,,,,,
-90.45,38.64,"3015 N BALLAS RD, TOWN AND COUNTR, MO 63131",MISSOURI BAPTIST MEDICAL CENTER,,,,,,,
-89.54,37.31,"1701 LACEY ST, CAPE GIRARDEAU, MO 63701",SOUTHEAST MISSOURI HOSPITAL,,,,,,,
-90.43,36.79,"2620 N WESTWOOD BLVD, POPLAR BLUFF, MO 63901",POPLAR BLUFF REGIONAL MEDICAL CENTER,,,,,,,
-94.53,37.05,"1102 WEST 32ND STREET, JOPLIN, MO 64804",FREEMAN HEALTH SYSTEM - FREEMAN WEST,,,,,,,
-94.59,39.05,"4401 WORNALL ROAD, KANSAS CITY, MO 64111",ST LUKES HOSPITAL OF KANSAS CITY,,,,,,,
NA,NA,"ONE HOSPITAL DRIVE, ROOM CE121, DC031,00, COLUMBIA, MO 65201",UNIVERSITY OF MISSOURI HEALTH CARE,,,,,,,
-90.45,38.58,"2345 DOUGHERTY FERRY ROAD, SAINT LOUIS, MO 63122",DES PERES HOSPITAL,,,,,,,
-94.42,39.27,"2525 GLENN HENDREN DR, LIBERTY, MO 64069",LIBERTY HOSPITAL,,,,,,,
-90.51,38.66,"232 S WOODS MILL RD, CHESTERFIELD, MO 63017",ST LUKES HOSPITAL,,,,,,,
-90.24,38.78,"11133 DUNN ROAD, SAINT LOUIS, MO 63136",CHRISTIAN HOSPITAL NORTHEAST,,,,,,,
-89.57,37.30,"211 ST FRANCIS DR, CAPE GIRARDEAU, MO 63703",ST FRANCIS MEDICAL CENTER,,,,,,,
-92.68,38.12,"54 HOSPITAL DRIVE, OSAGE BEACH, MO 65065",LAKE REGIONAL HEALTH SYSTEM,,,,,,,
-108.51,45.79,"2800 10TH AVE N, BILLINGS, MT 59101",BILLINGS CLINIC HOSPITAL,,,,,,,
-111.26,47.49,"1101 26TH ST S, GREAT FALLS, MT 59405",BENEFIS HOSPITALS INC,,,,,,,
-114.00,46.88,"500 W BROADWAY, MISSOULA, MT 59806",ST PATRICK HOSPITAL,,,,,,,
-108.52,45.79,"1233 N 30TH ST, BILLINGS, MT 59107",ST VINCENT HEALTHCARE,,,,,,,
-114.32,48.21,"310 SUNNYVIEW LANE, KALISPELL, MT 59901",KALISPELL REGIONAL MEDICAL CENTER,,,,,,,
-96.65,40.80,"1600 SOUTH 48TH ST, LINCOLN, NE 68506",BRYANLGH MEDICAL CENTER,,,,,,,
-99.08,40.71,"P O BOX 1990, 10 EAST 31ST ST, KEARNEY, NE 68848",GOOD SAMARITAN HOSPITAL,,,,,,,
-96.00,41.26,"987400 NEBRASKA MEDICAL CENTER, OMAHA, NE 68198",THE NEBRASKA MEDICAL CENTER,,,,,,,
-96.04,41.26,"8303 DODGE ST, OMAHA, NE 68114",THE NEBRASKA METHODIST HOSPITAL,,,,,,,
-96.03,41.24,"7500 MERCY RD, OMAHA, NE 68124",ALEGENT HEALTH BERGAN MERCY MEDICAL CENTER,,,,,,,
-103.66,41.89,"4021 AVE B, SCOTTSBLUFF, NE 69361",REGIONAL WEST MEDICAL CENTER,,,,,,,
-96.02,41.32,"6901 NORTH 72ND ST, OMAHA, NE 68122",ALEGENT HEALTH IMMANUEL MEDICAL CENTER,,,,,,,
-97.45,42.03,"2700 WEST NORFOLK AVE, NORFOLK, NE 68701",FAITH REGIONAL HEALTH SERVICES,,,,,,,
-96.59,40.74,"7500 SOUTH 91ST ST, LINCOLN, NE 68526",NEBRASKA HEART HOSPITAL,,,,,,,
-119.80,39.53,"1155 MILL STREET, RENO, NV 89502",RENOWN REGIONAL MEDICAL CENTER,,,,,,,
-115.14,36.13,"3186 S MARYLAND PKWY, LAS VEGAS, NV 89109",SUNRISE HOSPITAL AND MEDICAL CENTER,,,,,,,
-119.82,39.53,"235 W 6TH ST, RENO, NV 89503",SAINT MARY'S REGIONAL MEDICAL CENTER,,,,,,,
-119.78,39.20,"1600 MEDICAL PARKWAY, CARSON CITY, NV 89703",CARSON TAHOE REGIONAL MEDICAL CENTER,,,,,,,
-115.17,36.16,"620 SHADOW LANE, LAS VEGAS, NV 89106",VALLEY HOSPITAL MEDICAL CENTER,,,,,,,
-115.13,36.11,"2075 EAST FLAMINGO ROAD, LAS VEGAS, NV 89119",DESERT SPRINGS HOSPITAL,,,,,,,
-115.25,36.22,"3100 N TENAYA WAY, LAS VEGAS, NV 89128",MOUNTAINVIEW HOSPITAL,,,,,,,
-115.32,36.17,"657 TOWN CENTER DRIVE, LAS VEGAS, NV 89144",SUMMERLIN HOSPITAL MEDICAL CENTER,,,,,,,
-115.12,36.00,"3001 ST ROSE PARKWAY, HENDERSON, NV 89052",SAINT ROSE DOMINICAN HOSPITAL - SIENA CAMPUS,,,,,,,
-115.24,36.09,"5400 SOUTH RAINBOW BLVD, LAS VEGAS, NV 89118",SPRING VALLEY HOSPITAL MEDICAL CENTER,,,,,,,
-115.27,36.06,"8280 W WARM SPRINGS ROAD, LAS VEGAS, NV 89113",SAINT ROSE DOMINICAN HOSPITAL - SAN MARTIN CAMPUS,,,,,,,
-71.56,43.20,"250 PLEASANT ST, CONCORD, NH 3301",CONCORD HOSPITAL,,,,,,,
-72.27,43.68,"1 MEDICAL CENTER DRIVE, LEBANON, NH 3756",MARY HITCHCOCK MEMORIAL HOSPITAL,,,,,,,
-71.46,43.53,"80 HIGHLAND ST, LACONIA, NH 3246",LAKES REGION GENERAL HOSPITAL,,,,,,,
-71.48,42.75,"172 KINSLEY ST, NASHUA, NH 3060",ST JOSEPH HOSPITAL,,,,,,,
-71.44,42.98,"1 ELLIOT WAY, MANCHESTER, NH 3103",ELLIOT HOSPITAL,,,,,,,
-70.94,42.98,"5 ALUMNI DRIVE, EXETER, NH 3833",EXETER HOSPITAL INC,,,,,,,
-70.79,43.06,"333 BORTHWICK AVE, PORTSMOUTH, NH 3801",PORTSMOUTH REGIONAL HOSPITAL,,,,,,,
-71.47,42.99,"100 MCGREGOR STREET, MANCHESTER, NH 3102",CATHOLIC MEDICAL CENTER,,,,,,,
-74.06,40.88,"30 PROSPECT AVE, HACKENSACK, NJ 7601",HACKENSACK UNIVERSITY MEDICAL CENTER,,,,,,,
-74.18,40.79,"ONE CLARA MAAS DRIVE, BELLEVILLE, NJ 7109",CLARA MAASS MEDICAL CENTER,,,,,,,
-74.10,40.98,"223 N VAN DIEN AVENUE, RIDGEWOOD, NJ 7450",VALLEY HOSPITAL,,,,,,,
-75.12,39.94,"1 COOPER PLAZA, CAMDEN, NJ 8103",COOPER UNIVERSITY HOSPITAL,,,,,,,
-74.47,40.79,"100 MADISON AVE, MORRISTOWN, NJ 7962",MORRISTOWN MEMORIAL HOSPITAL,,,,,,,
-74.17,40.90,"703 MAIN ST, PATERSON, NJ 7503",ST JOSEPH'S REGIONAL MEDICAL CENTER,,,,,,,
-74.74,40.22,"601 HAMILTON AVE, TRENTON, NJ 8629",ST FRANCIS MEDICAL CENTER,,,,,,,
-74.92,39.78,"WHITEHORSE PIKE AND TOWNSEND AVENUE, BERLIN, NJ 8009",VIRTUA WEST JERSEY HOSPITALS BERLIN,,,,,,,
-75.09,39.93,"1600 HADDON AVENUE, CAMDEN, NJ 8103",OUR LADY OF LOURDES MEDICAL CENTER,,,,,,,
-74.59,39.98,"200 TRENTON ROAD, BROWNS MILLS, NJ 8015",DEBORAH HEART AND LUNG CENTER,,,,,,,
-75.06,39.45,"1505 W SHERMAN AVE, VINELAND, NJ 8360",SOUTH JERSEY HEALTHCARE REGIONAL MEDICAL CENTER,,,,,,,
-74.06,40.35,"ONE RIVERVIEW PLAZA, RED BANK, NJ 7701",RIVERVIEW MEDICAL CENTER,,,,,,,
-74.45,40.50,"ONE ROBERT WOOD JOHNSON PL, NEW BRUNSWICK, NJ 8901",ROBERT WOOD JOHNSON UNIVERSITY HOSPITAL,,,,,,,
-74.22,39.96,"99 RT 37 WEST, TOMS RIVER, NJ 8755",COMMUNITY MEDICAL CENTER,,,,,,,
-73.97,40.90,"350 ENGLE ST, ENGLEWOOD, NJ 7631",ENGLEWOOD HOSPITAL AND MEDICAL CENTER,,,,,,,
-74.59,39.31,"1 EAST NEW YORK AVE, SOMERS POINT, NJ 8244",SHORE MEDICAL CENTER,,,,,,,
-74.60,40.57,"110 REHILL AVE, SOMERVILLE, NJ 8876",SOMERSET MEDICAL CENTER,,,,,,,
-74.47,40.90,"25 POCONO ROAD, DENVILLE, NJ 7834",SAINT CLARE'S HOSPITAL,,,,,,,
-74.35,40.71,"99 BEAUVIOR AVE, SUMMIT, NJ 7902",OVERLOOK HOSPITAL,,,,,,,
-74.13,40.08,"425 JACK MARTIN BLVD, BRICK, NJ 8724",OCEAN MEDICAL CENTER,,,,,,,
-74.79,39.99,"175 MADISON AVE, MOUNT HOLLY, NJ 8060",VIRTUA MEMORIAL HOSPITAL OF BURLINGTON COUNTY,,,,,,,
-74.43,39.36,"1925 PACIFIC AVE, ATLANTIC CITY, NJ 8401",ATLANTICARE REGIONAL MEDICAL CENTER - CITY DIV,,,,,,,
-74.46,40.50,"254 EASTON AVE, NEW BRUNSWICK, NJ 8901",SAINT PETER'S UNIVERSITY HOSPITAL,,,,,,,
-74.04,40.21,"1945 RTE 33, NEPTUNE, NJ 7754",JERSEY SHORE UNIVERSITY MEDICAL CENTER,,,,,,,
-73.99,40.30,"300 SECOND AVENUE, LONG BRANCH, NJ 7740",MONMOUTH MEDICAL CENTER,,,,,,,
-74.30,40.76,"94 OLD SHORT HILLS ROAD, LIVINGSTON, NJ 7039",SAINT BARNABAS MEDICAL CENTER,,,,,,,
-75.15,39.84,"509 N BROAD ST, WOODBURY, NJ 8096",UNDERWOOD - MEMORIAL HOSPITAL,,,,,,,
-75.01,39.83,"18 EAST LAUREL ROAD, STRATFORD, NJ 8084",KENNEDY UNIVERSITY HOSPITAL - STRATFORD DIV,,,,,,,
-74.35,40.56,"65 JAMES STREET, EDISON, NJ 8818",JFK MEDICAL CTR - ANTHONY M. YELENCSICS COMMUNITY,,,,,,,
-74.31,40.24,"901 WEST MAIN STREET, FREEHOLD, NJ 7728",CENTRASTATE MEDICAL CENTER,,,,,,,
-74.29,39.72,"1140 RT 72 W, MANAHAWKIN, NJ 8050",SOUTHERN OCEAN MEDICAL CENTER,,,,,,,
-106.64,35.09,"601 DR MARTIN LUTHER KING JR AVE NE, ALBUQUERQUE, NM 87102",LOVELACE MEDICAL CENTER,,,,,,,
-106.74,32.29,"2450 SOUTH TELSHOR BLVD, LAS CRUCES, NM 88011",MEMORIAL MEDICAL CENTER INC,,,,,,,
-106.64,35.08,"1100 CENTRAL AVENUE SE, ALBUQUERQUE, NM 87106",PRESBYTERIAN HOSPITAL,,,,,,,
-104.26,32.44,"2430 WEST PIERCE, CARLSBAD, NM 88220",CARLSBAD MEDICAL CENTER,,,,,,,
-106.64,35.09,"504 ELM STREET NE, ALBUQUERQUE, NM 87102",HEART HOSPITAL OF NEW MEXICO,,,,,,,
-106.73,32.32,"4311 EAST LOHMAN AVENUE, LAS CRUCES, NM 88011",MOUNTAIN VIEW REGIONAL MEDICAL CENTER,,,,,,,
-104.52,33.42,"117 EAST 19TH STREET, ROSWELL, NM 88201",ROSWELL REGIONAL HOSPITAL,,,,,,,
-78.85,42.87,"726 EXCHANGE STREET, SUITE 522, BUFFALO, NY 14210",KALEIDA HEALTH,,,,,,,
-75.94,42.09,"169 RIVERSIDE DRIVE, BINGHAMTON, NY 13905","OUR LADY OF LOURDES MEMORIAL HOSPITAL, INC",,,,,,,
-73.78,42.65,"43 NEW SCOTLAND AVENUE, ALBANY, NY 12208",ALBANY MEDICAL CENTER HOSPITAL,,,,,,,
-73.93,41.69,"45 READE PLACE, POUGHKEEPSIE, NY 12601",VASSAR BROTHERS MEDICAL CENTER,,,,,,,
-73.95,40.79,"ONE GUSTAVE L LEVY PLACE, NEW YORK, NY 10029",MOUNT SINAI HOSPITAL,,,,,,,
-74.11,40.64,"355 BARD AVENUE, STATEN ISLAND, NY 10304",RICHMOND UNIVERSITY MEDICAL CENTER,,,,,,,
-75.28,43.10,"1656 CHAMPLIN AVENUE, UTICA, NY 13503",FAXTON-ST LUKE'S HEALTHCARE,,,,,,,
-73.80,42.66,"315 SOUTH MANNING BOULEVARD, ALBANY, NY 12208",ST PETER'S HOSPITAL,,,,,,,
-73.88,40.88,"111 EAST 210TH STREET, BRONX, NY 10467",MONTEFIORE MEDICAL CENTER,,,,,,,
-73.93,41.72,"241 NORTH ROAD, POUGHKEEPSIE, NY 12601",ST FRANCIS HOSPITAL,,,,,,,
-78.85,42.93,"2157 MAIN STREET, BUFFALO, NY 14214",SISTERS OF CHARITY HOSPITAL,,,,,,,
-76.83,42.10,"600 ROE AVENUE, ELMIRA, NY 14905",ARNOT OGDEN MEDICAL CENTER,,,,,,,
-73.95,40.76,"525 EAST 68TH STREET, NEW YORK, NY 10021",NEW YORK-PRESBYTERIAN HOSPITAL,,,,,,,
-73.70,40.78,"300 COMMUNITY DRIVE, MANHASSET, NY 11030",NORTH SHORE UNIVERSITY HOSPITAL,,,,,,,
-73.96,40.77,"100 EAST 77TH STREET, NEW YORK, NY 10021",LENOX HILL HOSPITAL,,,,,,,
-77.59,43.19,"1425 PORTLAND AVENUE, ROCHESTER, NY 14621",ROCHESTER GENERAL HOSPITAL,,,,,,,
-74.37,41.44,"707 EAST MAIN STREET, MIDDLETOWN, NY 10940",ORANGE REGIONAL MEDICAL CENTER,,,,,,,
-74.92,42.70,"ONE ATWELL ROAD, COOPERSTOWN, NY 13326",MARY IMOGENE BASSETT HOSPITAL,,,,,,,
-76.15,43.06,"301 PROSPECT AVENUE, SYRACUSE, NY 13203",ST JOSEPH'S HOSPITAL HEALTH CENTER,,,,,,,
-73.92,42.82,"1101 NOTT STREET, SCHENECTADY, NY 12308",ELLIS HOSPITAL,,,,,,,
-74.13,41.11,"255 LAFAYETTE AVENUE, SUFFERN, NY 10901",GOOD SAMARITAN HOSPITAL OF SUFFERN,,,,,,,
-74.09,40.58,"475 SEAVIEW AVENUE, STATEN ISLAND, NY 10305",STATEN ISLAND UNIVERSITY HOSPITAL,,,,,,,
-73.64,40.74,"259 FIRST STREET, MINEOLA, NY 11501",WINTHROP-UNIVERSITY HOSPITAL,,,,,,,
-73.98,40.73,"FIRST AVENUE AT 16TH STREET, NEW YORK, NY 10003",BETH ISRAEL MEDICAL CENTER,,,,,,,
-73.67,40.80,"100 PORT WASHINGTON BOULEVARD, ROSLYN, NY 11576","ST FRANCIS HOSPITAL, ROSLYN",,,,,,,
-73.05,40.94,"75 NORTH COUNTRY ROAD, PORT JEFFERSON, NY 11777",JOHN T MATHER MEMORIAL HOSPITAL  OF PORT JEFFERSON,,,,,,,
-79.03,43.15,"5300 MILITARY ROAD, LEWISTON, NY 14092",MOUNT ST MARY'S HOSPITAL AND  HEALTH CENTER,,,,,,,
-73.65,43.31,"100 PARK STREET, GLENS FALLS, NY 12801",GLENS FALLS HOSPITAL,,,,,,,
-74.00,40.64,"4802 TENTH AVENUE, BROOKLYN, NY 11219",MAIMONIDES MEDICAL CENTER,,,,,,,
-73.71,40.75,"270 - 05 76TH AVENUE, NEW HYDE PARK, NY 11040",LONG ISLAND JEWISH MEDICAL CENTER,,,,,,,
-73.63,40.65,"ONE HEALTHY WAY, OCEANSIDE, NY 11572",SOUTH NASSAU COMMUNITIES HOSPITAL,,,,,,,
-76.14,43.04,"736 IRVING AVENUE, SYRACUSE, NY 13210",CROUSE HOSPITAL,,,,,,,
-73.97,40.74,"550 FIRST AVENUE, NEW YORK, NY 10016",NYU HOSPITALS CENTER,,,,,,,
-73.80,43.09,"211 CHURCH STREET, SARATOGA SPRING, NY 12866",SARATOGA HOSPITAL,,,,,,,
-74.00,41.92,"105 MARY'S AVENUE, KINGSTON, NY 12401",BENEDICTINE HOSPITAL,,,,,,,
-73.81,41.09,"100 WOODS RD, VALHALLA, NY 10595",WESTCHESTER MEDICAL CENTER,,,,,,,
-73.98,40.67,"506 SIXTH STREET, BROOKLYN, NY 11215",NEW YORK METHODIST HOSPITAL,,,,,,,
-76.14,43.04,"750 EAST ADAMS STREET, SYRACUSE, NY 13210",UNIVERSITY HOSPITAL S U N Y HEALTH SCIENCE CENTER,,,,,,,
-75.27,43.08,"2209 GENESEE STREET, UTICA, NY 13501",ST ELIZABETH MEDICAL CENTER,,,,,,,
NA,NA,"75 BEEKMAN STREET, PLATTSBURGH, NY 12901",CHAMPLAIN VALLEY PHYSICIANS HOSPITAL MEDICAL CTR,,,,,,,
NA,NA,"70 DUBOIS STREET, NEWBURGH, NY 12550",ST LUKE'S CORNWALL HOSPITAL,,,,,,,
-77.63,43.12,"601 ELMWOOD AVE, ROCHESTER, NY 14642",STRONG MEMORIAL HOSPITAL,,,,,,,
-73.29,40.69,"1000 MONTAUK HIGHWAY, WEST ISLIP, NY 11795",GOOD SAMARITAN HOSPITAL MEDICAL CENTER,,,,,,,
-73.77,41.03,"41 EAST POST R0AD, WHITE PLAINS, NY 10601",WHITE PLAINS HOSPITAL CENTER,,,,,,,
-75.96,42.11,"33-57 HARRISON STREET, JOHNSON CITY, NY 13790","UNITED HEALTH SERVICES HOSPITALS, INC",,,,,,,
-73.22,40.87,"50 ROUTE 25A, SMITHTOWN, NY 11787",ST CATHERINE OF SIENA HOSPITAL,,,,,,,
-80.60,35.44,"920 CHURCH ST N, CONCORD, NC 28025",CAROLINAS MEDICAL CENTER-NORTHEAST,,,,,,,
-82.55,35.58,"509 BILTMORE AVE, ASHEVILLE, NC 28801",MEMORIAL MISSION HOSPITAL AND ASHEVILLE SURGERY CE,,,,,,,
-80.01,35.96,"601 N ELM ST  PO BOX HP-5, HIGH POINT, NC 27261",HIGH POINT REGIONAL HOSPITAL,,,,,,,
-80.30,36.08,"3333 SILAS CREEK PARKWAY, WINSTON-SALEM, NC 27103",FORSYTH MEMORIAL HOSPITAL,,,,,,,
-82.47,35.32,"800 N JUSTICE ST, HENDERSONVILLE, NC 28791",MARGARET R PARDEE MEMORIAL HOSPITAL,,,,,,,
-77.58,35.29,"100 AIRPORT RD, KINSTON, NC 28501",LENOIR MEMORIAL HOSPITAL,,,,,,,
-78.93,35.03,"1638 OWEN DRIVE P O BOX 2000, FAYETTEVILLE, NC 28302",CAPE FEAR VALLEY MEDICAL CENTER,,,,,,,
NA,NA,"PO BOX 3708 DUMC  ERWIN RD, DURHAM, NC 27710",DUKE UNIVERSITY HOSPITAL,,,,,,,
-81.14,35.27,"2525 COURT DR, GASTONIA, NC 28052",GASTON MEMORIAL HOSPITAL,,,,,,,
-77.40,35.61,"2100 STANTONSBURG RD, PO BOX 6028, GREENVILLE, NC 27835",PITT COUNTY MEMORIAL HOSPITAL,,,,,,,
-80.27,36.09,"MEDICAL CENTER BOULEVARD, WINSTON-SALEM, NC 27157",NORTH CAROLINA BAPTIST HOSPITAL,,,,,,,
-79.01,34.64,"300 W 27 ST  PO BOX 1408, LUMBERTON, NC 28359",SOUTHEASTERN REGIONAL MEDICAL CENTER,,,,,,,
NA,NA,"200 HAWTHORNE LANE BOX 33549, CHARLOTTE, NC 28233",PRESBYTERIAN HOSPITAL,,,,,,,
-78.59,35.78,"3000 NEW BERN AVE, RALEIGH, NC 27610","WAKEMED, RALEIGH CAMPUS",,,,,,,
-79.50,36.06,"1240 HUFFMAN MILL RD PO BOX 202, BURLINGTON, NC 27216",ALAMANCE REGIONAL MEDICAL CENTER,,,,,,,
-78.62,35.83,"3400 WAKE FOREST RD, RALEIGH, NC 27609",DUKE HEALTH RALEIGH HOSPITAL,,,,,,,
-79.79,36.09,"1200 N ELM ST, GREENSBORO, NC 27401","MOSES H CONE MEMORIAL HOSPITAL, THE",,,,,,,
-80.82,35.21,"2001 VAIL AVE, CHARLOTTE, NC 28207",CAROLINAS MED CENTER-MERCY,,,,,,,
-76.22,36.32,"1144 N ROAD ST, ELIZABETH CITY, NC 27909",ALBEMARLE HOSPITAL AUTHORITY,,,,,,,
-80.84,35.20,"1000 BLYTHE BLVD, CHARLOTTE, NC 28203",CAROLINAS MEDICAL CENTER/BEHAV HEALTH,,,,,,,
-78.70,35.82,"4420 LAKE BOONE TRAIL, RALEIGH, NC 27607",REX HOSPITAL,,,,,,,
-79.46,35.21,"155 MEMORIAL DRIVE, PINEHURST, NC 28374",FIRSTHEALTH MOORE REGIONAL HOSPITAL,,,,,,,
-81.34,35.74,"420 N CENTER ST, HICKORY, NC 28601",FRYE REGIONAL MEDICAL CENTER,,,,,,,
-77.07,35.11,"2000 NEUSE BLVD, NEW BERN, NC 28560",CAROLINA EAST MEDICAL CENTER,,,,,,,
NA,NA,"2131 S 17TH ST BOX 9000, WILMINGTON, NC 28402",NEW HANOVER REGIONAL MEDICAL CENTER,,,,,,,
-81.27,35.71,"810 FAIRGROVE CHURCH RD, HICKORY, NC 28602",CATAWBA VALLEY MEDICAL CENTER,,,,,,,
-100.78,46.81,"900 E BROADWAY, BISMARCK, ND 58501",ST ALEXIUS MEDICAL CENTER,,,,,,,
-101.29,48.23,"407 3RD ST SE, MINOT, ND 58701",TRINITY HOSPITALS,,,,,,,
-96.79,46.88,"801 BROADWAY NORTH, FARGO, ND 58122",SANFORD MEDICAL CENTER FARGO,,,,,,,
-100.78,46.81,"300 N 7TH ST, BISMARCK, ND 58506",MEDCENTER ONE,,,,,,,
-97.07,47.91,"1200 S COLUMBIA RD, GRAND FORKS, ND 58201",ALTRU HOSPITAL,,,,,,,
-96.83,46.83,"3000 32ND AVE SOUTH, FARGO, ND 58104",ESSENTIA HEALTH-FARGO,,,,,,,
-83.03,40.03,"3535 OLENTANGY RIVER RD, COLUMBUS, OH 43214",RIVERSIDE METHODIST HOSPITAL,,,,,,,
-82.98,38.75,"1805 27TH STREET, PORTSMOUTH, OH 45662",SOUTHERN OHIO MEDICAL CENTER,,,,,,,
-84.09,40.74,"1001 BELLEFONTAINE AVENUE, LIMA, OH 45804",LIMA MEMORIAL HEALTH SYSTEM,,,,,,,
-82.95,40.11,"500 SOUTH CLEVELAND AVENUE, WESTERVILLE, OH 43081",MOUNT CARMEL ST ANN'S HOSPITAL,,,,,,,
-82.99,39.96,"111 SOUTH GRANT AVENUE, COLUMBUS, OH 43215",GRANT MEDICAL CENTER,,,,,,,
-81.59,41.01,"155 5TH STREET N E, BARBERTON, OH 44203",SUMMA HEALTH SYSTEM BARBERTON HOSPITAL,,,,,,,
-81.50,41.08,"525 EAST MARKET STREET, AKRON, OH 44309",SUMMA HEALTH SYSTEMS HOSPITALS,,,,,,,
-82.71,41.45,"1111 HAYES AVENUE, SANDUSKY, OH 44870",FIRELANDS REGIONAL MEDICAL CENTER,,,,,,,
-81.53,41.08,"400 WABASH AVENUE, AKRON, OH 44307",AKRON GENERAL MEDICAL CENTER,,,,,,,
-83.02,39.96,"793 WEST STATE STREET, COLUMBUS, OH 43222",MOUNT CARMEL HEALTH,,,,,,,
-82.02,39.97,"2951 MAPLE AVENUE, ZANESVILLE, OH 43701",GENESIS HEALTHCARE SYSTEM,,,,,,,
-81.73,41.38,"7007 POWERS BOULEVARD, PARMA, OH 44129",PARMA COMMUNITY GENERAL HOSPITAL,,,,,,,
-83.62,41.62,"3000 ARLINGTON AVENUE, TOLEDO, OH 43699",UNIVERSITY OF TOLEDO MEDICAL CENTER,,,,,,,
-84.18,39.75,"ONE WYOMING STREET, DAYTON, OH 45409",MIAMI VALLEY HOSPITAL,,,,,,,
-84.23,39.79,"2222 PHILADELPHIA DRIVE, DAYTON, OH 45406",GOOD SAMARITAN HOSPITAL,,,,,,,
-84.52,39.31,"3000 MACK ROAD, FAIRFIELD, OH 45014",MERCY HOSPITAL FAIRFIELD,,,,,,,
-81.70,41.46,"2500 METROHEALTH DRIVE, CLEVELAND, OH 44109",METRO HEALTH MEDICAL CENTER,,,,,,,
-80.66,41.11,"1044 BELMONT AVENUE, YOUNGSTOWN, OH 44501",ST ELIZABETH HEALTH CENTER,,,,,,,
-84.12,40.74,"730 WEST MARKET STREET, LIMA, OH 45801",ST RITA'S MEDICAL CENTER,,,,,,,
-83.59,41.67,"2142 NORTH COVE BOULEVARD, TOLEDO, OH 43606",TOLEDO HOSPITAL THE,,,,,,,
-81.40,40.81,"1320 MERCY DRIVE NW, CANTON, OH 44708",MERCY MEDICAL CENTER,,,,,,,
-82.58,39.72,"401 NORTH EWING STREET, LANCASTER, OH 43130",FAIRFIELD MEDICAL CENTER,,,,,,,
-81.82,41.45,"18101 LORAIN AVENUE, CLEVELAND, OH 44111",FAIRVIEW HOSPITAL,,,,,,,
-81.25,41.18,"6847 N CHESTNUT, RAVENNA, OH 44266",ROBINSON MEMORIAL HOSPITAL,,,,,,,
-84.19,39.70,"3535 SOUTHERN BOULEVARD, KETTERING, OH 45429",KETTERING MEDICAL CENTER,,,,,,,
-81.40,40.80,"2600 SIXTH STREET SW, CANTON, OH 44710",AULTMAN HOSPITAL,,,,,,,
-83.02,40.00,"410 WEST 10TH AVENUE, COLUMBUS, OH 43210",OHIO STATE UNIVERSITY HOSPITALS,,,,,,,
-83.82,39.93,"100 MEDICAL CENTER DRIVE, SPRINGFIELD, OH 45504",SPRINGFIELD REGIONAL MEDICAL CENTER,,,,,,,
-83.65,41.02,"1900 SOUTH MAIN STREET, FINDLAY, OH 45840",BLANCHARD VALLEY HOSPITAL,,,,,,,
-81.25,41.66,"7590 AUBURN ROAD, CONCORD, OH 44077",LAKE HEALTH,,,,,,,
-83.54,41.67,"2213 CHERRY STREET, TOLEDO, OH 43608",MERCY ST VINCENT MEDICAL CENTER,,,,,,,
-82.53,40.75,"335 GLESSNER AVENUE, MANSFIELD, OH 44903",MEDCENTRAL HEALTH SYSTEM,,,,,,,
-84.57,39.42,"630 EATON AVENUE, HAMILTON, OH 45013",FORT HAMILTON HUGHES MEMORIAL HOSPITAL,,,,,,,
-84.20,39.77,"405 GRAND AVENUE, DAYTON, OH 45405",GRANDVIEW HOSPITAL & MEDICAL CENTER,,,,,,,
-84.52,39.14,"375 DIXMYTH AVENUE, CINCINNATI, OH 45220",GOOD SAMARITAN HOSPITAL,,,,,,,
-81.61,41.51,"11100 EUCLID AVENUE, CLEVELAND, OH 44106",UNIVERSITY HOSPITALS OF CLEVELAND,,,,,,,
-82.10,41.37,"630 EAST RIVER STREET, ELYRIA, OH 44035",EMH REGIONAL MEDICAL CENTER,,,,,,,
-81.46,39.43,"401 MATTHEW STREET, MARIETTA, OH 45750",MARIETTA MEMORIAL HOSPITAL,,,,,,,
-81.83,41.37,"18697 BAGLEY ROAD, MIDDLEBURG HEIG, OH 44130",SOUTHWEST GENERAL HEALTH CENTER,,,,,,,
-82.97,39.40,"272 HOSPITAL ROAD, CHILLICOTHE, OH 45601",ADENA REGIONAL MEDICAL CENTER,,,,,,,
-80.78,41.23,"667 EASTLAND AVE SE, WARREN, OH 44481",ST JOSEPH HEALTH CENTER,,,,,,,
-84.51,39.12,"2139 AUBURN AVENUE, CINCINNATI, OH 45219",CHRIST HOSPITAL,,,,,,,
-82.24,41.44,"3700 KOLBE ROAD, LORAIN, OH 44053",MERCY REGIONAL MEDICAL CENTER,,,,,,,
-84.34,39.25,"10500 MONTGOMERY ROAD, CINCINNATI, OH 45242",BETHESDA NORTH HOSPITAL,,,,,,,
-81.62,41.50,"9500 EUCLID AVENUE, CLEVELAND, OH 44195",CLEVELAND CLINIC,,,,,,,
-80.63,40.35,"380 SUMMIT AVENUE, STEUBENVILLE, OH 43952",TRINITY MEDICAL CTR EAST&TRINITY MEDICAL CTR WEST,,,,,,,
-81.44,41.52,"6780 MAYFIELD ROAD, MAYFIELD HEIGHT, OH 44124",HILLCREST HOSPITAL,,,,,,,
-83.63,41.69,"3404 SYLVANIA AVENUE, TOLEDO, OH 43623",MERCY ST ANNE HOSPITAL,,,,,,,
-95.97,36.15,"1120 SOUTH UTICA AVENUE, TULSA, OK 74104",HILLCREST MEDICAL CENTER,,,,,,,
-97.89,36.39,"600 SOUTH MONROE, ENID, OK 73701",INTEGRIS BASS BAPTIST HEALTH CENTER,,,,,,,
-97.58,35.53,"3300 NORTHWEST EXPRESSWAY, OKLAHOMA CITY, OK 73112",INTEGRIS BAPTIST MEDICAL CENTER,,,,,,,
-97.52,35.48,"1000 NORTH LEE AVENUE, OKLAHOMA CITY, OK 73101",ST ANTHONY HOSPITAL,,,,,,,
-98.44,34.61,"3401 WEST GORE BOULVARD, LAWTON, OK 73505",COMANCHE COUNTY MEMORIAL HOSPITAL,,,,,,,
-95.92,36.07,"6161 SOUTH YALE, TULSA, OK 74136","SAINT FRANCIS HOSPITAL, INC",,,,,,,
-95.97,36.13,"1923 SOUTH UTICA AVENUE, TULSA, OK 74104","ST JOHN MEDICAL CENTER, INC",,,,,,,
-95.86,36.04,"8801 SOUTH 101ST EAST AVENUE, TULSA, OK 74133",SOUTHCREST HOSPITAL,,,,,,,
-97.60,35.61,"4050 WEST MEMORIAL ROAD, OKLAHOMA CITY, OK 73120",OKLAHOMA HEART HOSPITAL,,,,,,,
-97.43,35.39,"5200 EAST I-240 SERVICE ROAD, OKLAHOMA CITY, OK 73135",OKLAHOMA HEART HOSPITAL SOUTH,,,,,,,
-123.34,42.42,"500 SW RAMSEY AVENUE, GRANTS PASS, OR 97527",THREE RIVERS COMMUNITY HOSPITAL,,,,,,,
-122.77,45.51,"9205 SW BARNES ROAD, PORTLAND, OR 97225",PROVIDENCE ST VINCENT MEDICAL CENTER,,,,,,,
-122.67,45.54,"2801 N GANTENBEIN AVENUE, PORTLAND, OR 97227",LEGACY EMANUEL MEDICAL CENTER,,,,,,,
-123.2527,44.60324,"3600 NW SAMARITAN DRIVE, CORVALLIS, OR 97330",GOOD SAMARITAN REGIONAL MEDICAL CENTER,,,,,,,
-122.83342,42.31759,"2825 E BARNETT ROAD, MEDFORD, OR 97504",ROGUE VALLEY MEDICAL CENTER,,,,,,,
-123.00362,44.05329,"1460 G STREET, SPRINGFIELD, OR 97477",MCKENZIE-WILLAMETTE MEDICAL CENTER,,,,,,,
-121.26946,44.06789,"2500 NE NEFF ROAD, BEND, OR 97701",ST CHARLES MEDICAL CENTER - BEND,,,,,,,
-123.03394,44.93254,"890 OAK STREET, SE, SALEM, OR 97301",SALEM HOSPITAL,,,,,,,
-122.8622,42.33963,"1111 CRATER LAKE AVENUE, MEDFORD, OR 97504",PROVIDENCE MEDFORD MEDICAL CENTER,,,,,,,
-122.74166,45.37855,"19300 SW 65TH AVENUE, TUALATIN, OR 97062",LEGACY MERIDIAN PARK MEDICAL CENTER,,,,,,,
-124.2333,43.38583,"1775 THOMPSON ROAD, COOS BAY, OR 97420",BAY AREA HOSPITAL,,,,,,,
-123.02648,44.08091,"3333 RIVERBEND DRIVE, SPRINGFIELD, OR 97477",SACRED HEART MEDICAL CENTER - RIVERBEND,,,,,,,
-75.64559,41.40055,"1822 MULBERRY STREET, SCRANTON, PA 18510",COMMUNITY MEDICAL CENTER,,,,,,,
-76.60525,40.96781,"100 NORTH ACADEMY AVENUE, DANVILLE, PA 17822",GEISINGER MEDICAL CENTER,,,,,,,
-80.07914,42.11099,"232 WEST 25TH STREET, ERIE, PA 16544",SAINT VINCENT HEALTH CENTER,,,,,,,
-76.88642,40.97959,"ONE HOSPITAL DRIVE, LEWISBURG, PA 17837",EVANGELICAL COMMUNITY HOSPITAL,,,,,,,
-76.18851,40.69072,"700 EAST NORWEGIAN STREET, POTTSVILLE, PA 17901",SCHUYLKILL MEDICAL CENTER - EAST NORWEGIAN STREET,,,,,,,
-75.95,40.33241,"SIXTH AVENUE AND SPRUCE ST, READING, PA 19603",READING HOSPITAL MEDICAL CENTER,,,,,,,
-77.01541,41.247,"700 HIGH STREET, WILLIAMSPORT, PA 17701",WILLIAMSPORT REGIONAL MEDICAL CENTER,,,,,,,
-76.71884,39.94604,"1001 SOUTH GEORGE STREET, YORK, PA 17403",YORK HOSPITAL,,,,,,,
-75.3929,40.60975,"801 OSTRUM STREET, BETHLEHEM, PA 18015",ST LUKE'S HOSPITAL BETHLEHEM,,,,,,,
-80.00282,40.4566,"320 EAST NORTH AVENUE, PITTSBURGH, PA 15212",ALLEGHENY GENERAL HOSPITAL,,,,,,,
-75.32621,40.36358,"700 LAWN AVENUE, SELLERSVILLE, PA 18960",GRAND VIEW HOSPITAL,,,,,,,
-77.2231,40.18343,"361 ALEXANDER SPRING ROAD, CARLISLE, PA 17015",CARLISLE REGIONAL MEDICAL CENTER,,,,,,,
-80.08683,42.13354,"201 STATE STREET, ERIE, PA 16550",UPMC HAMOT,,,,,,,
-78.39888,40.52157,"620 HOWARD AVENUE, ALTOONA, PA 16601",ALTOONA REGIONAL HEALTH SYSTEM,,,,,,,
-78.77515,41.11492,"100 HOSPITAL AVENUE, DUBOIS, PA 15801",DUBOIS REGIONAL MEDICAL CENTER,,,,,,,
-76.30413,40.04717,"555 NORTH DUKE STREET, LANCASTER, PA 17604",LANCASTER GENERAL HOSPITAL,,,,,,,
-84.02765,36.03186,"POWELL & FORNANCE STREETS, NORRISTOWN, PA 19401",MONTGOMERY HOSPITAL,,,,,,,
-78.91913,40.30553,"1086 FRANKLIN STREET, JOHNSTOWN, PA 15905",CONEMAUGH VALLEY MEMORIAL HOSPITAL,,,,,,,
-81.1198,32.31691,"34TH & SPRUCE STS, PHILADELPHIA, PA 19104",HOSPITAL OF UNIV OF PENNSYLVANIA,,,,,,,
-75.47,40.6,"PO BOX 689, ALLENTOWN, PA 18105",LEHIGH VALLEY HOSPITAL,,,,,,,
-75.86663,41.25842,"575 NORTH RIVER STREET, WILKES-BARRE, PA 18764",WILKES-BARRE GENERAL HOSPITAL,,,,,,,
-75.32128,40.0188,"130 SOUTH BRYN MAWR AVE, BRYN MAWR, PA 19010",MAIN LINE HOSPITAL BRYN MAWR CAMPUS,,,,,,,
-79.55523,40.30074,"532 WEST PITTSBURGH STREET, GREENSBURG, PA 15601",EXCELA HEALTH WESTMORELAND REGIONAL HOSPITAL,,,,,,,
-77.64627,39.93417,"112 NORTH SEVENTH STREET, CHAMBERSBURG, PA 17201",CHAMBERSBURG HOSPITAL,,,,,,,
-75.50221,40.04447,"255 WEST LANCASTER AVENUE, PAOLI, PA 19301",MAIN LINE HOSPITAL PAOLI,,,,,,,
-75.24279,40.68711,"250 SOUTH 21ST STREET, EASTON, PA 18042",EASTON HOSPITAL,,,,,,,
-79.96098,40.44256,"200 LOTHROP STREET, PITTSBURGH, PA 15213",UPMC PRESBYTERIAN SHADYSIDE,,,,,,,
-79.88041,40.86735,"ONE HOSPITAL WAY, BUTLER, PA 16001",BUTLER MEMORIAL HOSPITAL,,,,,,,
-75.15842,39.94983,"111 SOUTH 11TH STREET, PHILADELPHIA, PA 19107",THOMAS JEFFERSON UNIVERSITY HOSPITAL,,,,,,,
-75.60248,39.97088,"701 EAST MARSHALL ST, WEST CHESTER, PA 19380",CHESTER COUNTY HOSPITAL,,,,,,,
-75.36819,39.85576,"ONE MEDICAL CENTER BOULEVARD, UPLAND, PA 19013",CROZER CHESTER MEDICAL CENTER,,,,,,,
-75.262,39.98839,"100 LANCASTER AVE, WYNNEWOOD, PA 19096",MAIN LINE HOSPITAL LANKENAU,,,,,,,
-75.46838,40.60835,"421 CHEW STREET, ALLENTOWN, PA 18102",SACRED HEART HOSPITAL,,,,,,,
-75.1743,40.99229,"206 EAST BROWN STREET, EAST STROUDSBUR, PA 18301",POCONO MEDICAL CENTER,,,,,,,
-75.19908,39.95829,"51 NORTH 39TH STREET, PHILADELPHIA, PA 19104",PENN PRESBYTERIAN MEDICAL CENTER,,,,,,,
-76.18224,40.18739,"169 MARTIN AVENUE, EPHRATA, PA 17522",EPHRATA COMMUNITY HOSPITAL,,,,,,,
-75.15561,39.94545,"800 SPRUCE STREET, PHILADELPHIA, PA 19107",PENNSYLVANIA HOSP OF THE UNIV OF PA HEALTH SYS,,,,,,,
-75.12036,40.11937,"1200 OLD YORK ROAD, ABINGTON, PA 19001",ABINGTON MEMORIAL HOSPITAL,,,,,,,
-75.6536,41.4127,"746 JEFFERSON AVENUE, SCRANTON, PA 18501",REGIONAL HOSPITAL OF SCRANTON,,,,,,,
-76.67668,40.26404,"500 UNIVERSITY DRIVE, HERSHEY, PA 17033",MILTON S HERSHEY MEDICAL CENTER,,,,,,,
-74.92947,40.20026,"LANGHORNE-NEWTOWN RD, LANGHORNE, PA 19047",ST MARY MEDICAL CENTER,,,,,,,
-79.93349,40.31844,"565 COAL VALLEY RD, PITTSBURGH, PA 15236",JEFFERSON REGIONAL MEDICAL CENTER,,,,,,,
-77.8647,40.80577,"1800 EAST PARK AVE, STATE COLLEGE, PA 16803",MOUNT NITTANY MEDICAL CENTER,,,,,,,
-75.81043,41.25855,"100O EAST MOUNTAIN BOULEVARD, WILKES BARRE, PA 18711",GEISINGER WYOMING VALLEY MEDICAL CENTER,,,,,,,
-71.40708,41.81167,"593 EDDY STREET, PROVIDENCE, RI 2902",RHODE ISLAND HOSPITAL,,,,,,,
-71.47813,41.7053,"455 TOLL GATE RD, WARWICK, RI 2886",KENT COUNTY MEMORIAL HOSPITAL,,,,,,,
-71.39836,41.85204,"164 SUMMIT AVENUE, PROVIDENCE, RI 2906",MIRIAM HOSPITAL,,,,,,,
-81.05266,34.95685,"222 S HERLONG AVE, ROCK HILL, SC 29730",PIEDMONT MEDICAL CENTER,,,,,,,
-79.94682,32.78435,"169 ASHLEY AVE, CHARLESTON, SC 29425",MUSC MEDICAL CENTER,,,,,,,
-81.94023,34.96716,"101 E WOOD ST, SPARTANBURG, SC 29303",SPARTANBURG REGIONAL MEDICAL CENTER,,,,,,,
-81.03194,34.02789,"5 RICHLAND MEDICAL PARK, COLUMBIA, SC 29203",PALMETTO HEALTH RICHLAND,,,,,,,
-82.42144,34.84037,"ONE ST FRANCIS DR, GREENVILLE, SC 29601",ST FRANCIS-DOWNTOWN,,,,,,,
-81.01325,34.01419,"2435 FOREST DR, COLUMBIA, SC 29204",SISTERS OF CHARITY PROVIDENCE HOSPITALS,,,,,,,
-82.64641,34.51156,"800 N FANT ST, ANDERSON, SC 29621",ANMED HEALTH,,,,,,,
-79.00178,33.78555,"300 SINGLETON RIDGE ROAD, CONWAY, SC 29526",CONWAY MEDICAL CENTER,,,,,,,
NA,NA,"555 E CHEVES ST BOX 8700, FLORENCE, SC 29506",MCLEOD REGIONAL MEDICAL CENTER-PEE DEE,,,,,,,
-80.68761,32.41698,"955 RIBAUT RD, BEAUFORT, SC 29902",BEAUFORT COUNTY MEMORIAL HOSPITAL,,,,,,,
-82.15737,34.17577,"1325 SPRING STREET, GREENWOOD, SC 29646",SELF REGIONAL HEALTHCARE,,,,,,,
-81.1143,34.00602,"2720 SUNSET BLVD, WEST COLUMBIA, SC 29169",LEXINGTON MEDICAL CENTER,,,,,,,
-82.41168,34.81926,"701 GROVE RD, GREENVILLE, SC 29605",GREENVILLE MEMORIAL HOSPITAL,,,,,,,
-80.07281,32.97587,"9330 MEDICAL PLAZA DR, CHARLESTON, SC 29406",TRIDENT MEDICAL CENTER,,,,,,,
-81.76184,33.57124,"302 UNIVERSITY PARKWAY, AIKEN, SC 29801",AIKEN REGIONAL MEDICAL CENTER,,,,,,,
NA,NA,"809 82ND PARKWAY BOX 7500, MYRTLE BEACH, SC 29577",GRAND STRAND REG MED CENTER,,,,,,,
-79.94941,32.78313,"316 CALHOUN ST, CHARLESTON, SC 29401",ROPER HOSPITAL,,,,,,,
-79.75163,34.16021,"805 PAMPLICO HWY BOX 100550, FLORENCE, SC 29505",CAROLINAS HOSPITAL SYSTEM,,,,,,,
-79.02276,33.5976,"4070 HIGHWAY 17 BY-PASS, MURRELLS INLET, SC 29576",WACCAMAW COMMUNITY HOSPITAL,,,,,,,
-97.40684,42.87253,"501 SUMMIT, YANKTON, SD 57078",AVERA SACRED HEART HOSPITAL,,,,,,,
-96.74317,43.53562,"1305 W 18TH ST  PO BOX 5039, SIOUX FALLS, SD 57117",SANFORD USD MEDICAL CENTER,,,,,,,
-103.22445,44.05745,"353 FAIRMONT BLVD  PO BOX 6000, RAPID CITY, SD 57701",RAPID CITY REGIONAL HOSPITAL,,,,,,,
-96.78108,43.49098,"4500 W 69TH ST, SIOUX FALLS, SD 57108",AVERA HEART HOSPITAL OF SOUTH DAKOTA LLC,,,,,,,
-88.83185,35.63672,"620 SKYLINE DRIVE, JACKSON, TN 38301",JACKSON-MADISON COUNTY GENERAL HOSPITAL,,,,,,,
-102.36397,31.85192,"520 E 6TH STREET, ODESSA, TX 79761",ODESSA REGIONAL HOSPITAL,,,,,,,
-86.74974,36.24501,"3441 DICKERSON PIKE, NASHVILLE, TN 37207",SKYLINE MEDICAL CENTER,,,,,,,
-83.95868,35.75649,"907 E LAMAR ALEXANDER PARKWAY, MARYVILLE, TN 37804",BLOUNT MEMORIAL HOSPITAL,,,,,,,
-82.25674,36.58572,"ONE MEDICAL PARK BLVD, BRISTOL, TN 37620",WELLMONT BRISTOL REGIONAL MEDICAL CENTER,,,,,,,
-83.94827,35.93465,"1924 ALCOA HIGHWAY, KNOXVILLE, TN 37920",UNIVERSITY OF TN MEMORIAL HOSPITAL,,,,,,,
-82.55483,36.55401,"130 WEST RAVINE ROAD, KINGSPORT, TN 37662",WELLMONT HOLSTON VALLEY MEDICAL CENTER,,,,,,,
-86.81799,35.91595,"4321 CAROTHERS PARKWAY, FRANKLIN, TN 37067",WILLIAMSON MEDICAL CENTER,,,,,,,
-83.30558,36.21314,"908 W 4TH NORTH ST, MORRISTOWN, TN 37814",MORRISTOWN HAMBLEN HOSPITAL ASSOCIATION,,,,,,,
-84.24527,36.02446,"990 OAK RIDGE TURNPIKE BOX 529, OAK RIDGE, TN 37830",METHODIST MEDICAL CENTER OF OAK RIDGE,,,,,,,
-87.2705,36.58199,"651 DUNLOP LANE, CLARKSVILLE, TN 37040",GATEWAY MEDICAL CENTER,,,,,,,
-86.801,36.14379,"1161 21ST AVENUE SOUTH, NASHVILLE, TN 37232",VANDERBILT UNIVERSITY HOSPITAL,,,,,,,
-89.86195,35.12904,"6019 WALNUT GROVE ROAD, MEMPHIS, TN 38120",BAPTIST MEMORIAL HOSPITAL,,,,,,,
-90.01943,35.13677,"1265 UNION AVE SUITE 700, MEMPHIS, TN 38104",METHODIST HEALTHCARE MEMPHIS HOSPITALS,,,,,,,
-86.42433,35.86073,"1700 MEDICAL CENTER PARKWAY, MURFREESBORO, TN 37129",MIDDLE TENNESSEE MEDICAL CENTER INC,,,,,,,
-85.50938,36.17121,"1 MEDICAL CENTER BOULEVARD, COOKEVILLE, TN 38501",COOKEVILLE REGIONAL MEDICAL CENTER,,,,,,,
-82.38425,36.30774,"400 N STATE OF FRANKLIN RD, JOHNSON CITY, TN 37604",JOHNSON CITY MEDICAL CENTER,,,,,,,
-87.06655,35.60699,"1224 TROTWOOD AVE, COLUMBIA, TN 38401",MAURY REGIONAL HOSPITAL,,,,,,,
-86.84448,36.12932,"4220 HARDING RD, PO BOX 380, NASHVILLE, TN 37205",ST THOMAS HOSPITAL,,,,,,,
-85.26039,35.04133,"2525 DESALES AVE, CHATTANOOGA, TN 37404","MEMORIAL HEALTHCARE SYSTEM, INC",,,,,,,
-85.29055,35.04902,"975 E 3RD ST, CHATTANOOGA, TN 37403",ERLANGER MEDICAL CENTER,,,,,,,
-83.92667,35.99241,"900 EAST OAK HILL AVENUE, KNOXVILLE, TN 37917",TENNOVA HEALTHCARE,,,,,,,
-83.9366,35.95747,"1901 W CLINCH AVE, KNOXVILLE, TN 37916",FORT SANDERS REGIONAL MEDICAL CENTER,,,,,,,
-86.80248,36.15394,"2000 CHURCH ST, NASHVILLE, TN 37236",BAPTIST HOSPITAL,,,,,,,
-86.44884,35.56358,"2835 HWY 231 N, SHELBYVILLE, TN 37160",HERITAGE MEDICAL CENTER,,,,,,,
NA,NA,"1801 N JACKSON ST BOX 460, TULLAHOMA, TN 37388",HARTON REGIONAL MEDICAL CENTER,,,,,,,
-86.60814,36.17639,"5655 FRIST BLVD, HERMITAGE, TN 37076",SUMMIT MEDICAL CENTER,,,,,,,
-85.26735,35.03467,"2333 MCCALLIE AVE, CHATTANOOGA, TN 37404",PARKRIDGE MEDICAL CENTER,,,,,,,
-86.80915,36.15371,"2300 PATTERSON STREET, NASHVILLE, TN 37203",CENTENNIAL MEDICAL CENTER,,,,,,,
-84.10088,35.91713,"9352 PARK WEST BLVD, KNOXVILLE, TN 37923",PARKWEST MEDICAL CENTER,,,,,,,
-84.86938,35.1775,"2305 CHAMBLISS AVE NW, CLEVELAND, TN 37311",SKYRIDGE MEDICAL CENTER,,,,,,,
-88.85405,35.68441,"367 HOSPITAL BLVD, JACKSON, TN 38305",REGIONAL HOSPITAL OF JACKSON,,,,,,,
-86.32731,36.22069,"1411 BADDOUR PARKWAY, LEBANON, TN 37087",UNIVERSITY MEDICAL CENTER,,,,,,,
-99.15243,30.04392,"551 HILL COUNTRY DRIVE, KERRVILLE, TX 78028",PETERSON REGIONAL MEDICAL CENTER,,,,,,,
-98.50161,33.90281,"1600 11TH STREET, WICHITA FALLS, TX 76301",UNITED REGIONAL HEALTH CARE SYSTEM,,,,,,,
-96.34697,30.65635,"2801 FRANCISCAN DR, BRYAN, TX 77802",ST JOSEPH REGIONAL HEALTH CENTER,,,,,,,
-96.97776,28.81307,"2701 HOSPITAL DRIVE, VICTORIA, TX 77901",CITIZENS MEDICAL CENTER,,,,,,,
-99.47798,27.53249,"1700 EAST SAUNDERS, LAREDO, TX 78044",LAREDO MEDICAL CENTER,,,,,,,
-97.67052,26.17464,"2101 PEASE ST, HARLINGEN, TX 78550",VHS HARLINGEN HOSPITAL COMPANY LLC,,,,,,,
-94.13215,30.08697,"2830 CALDER AVENUE, BEAUMONT, TX 77702",CHRISTUS HOSPITAL,,,,,,,
-94.73072,32.50091,"700 EAST MARSHALL AVENUE, LONGVIEW, TX 75601",GOOD SHEPHERD MEDICAL CENTER,,,,,,,
-101.8919,33.57696,"3615 19TH STREET, LUBBOCK, TX 79410",COVENANT MEDICAL CENTER,,,,,,,
-97.19954,31.51445,"6901 MEDICAL PARKWAY, WACO, TX 76712",PROVIDENCE HEALTH CENTER,,,,,,,
-97.39496,27.77769,"600 ELIZABETH STREET, CORPUS CHRISTI, TX 78404",CHRISTUS SPOHN HOSPITAL CORPUS CHRISTI,,,,,,,
-96.82578,32.76042,"1441 NORTH BECKLEY AVENUE, DALLAS, TX 75203",METHODIST DALLAS MEDICAL CENTER,,,,,,,
-97.36399,31.07767,"2401 31ST ST, TEMPLE, TX 76508",SCOTT & WHITE MEMORIAL HOSPITAL,,,,,,,
-97.74552,30.30508,"1201 W 38TH ST, AUSTIN, TX 78705",SETON MEDICAL CENTER AUSTIN,,,,,,,
-98.49262,29.43368,"111 DALLAS STREET, SAN ANTONIO, TX 78205",BAPTIST MEDICAL CENTER,,,,,,,
-97.11557,32.74865,"800 W RANDOL MILL RD, ARLINGTON, TX 76012",TEXAS HEALTH ARLINGTON MEMORIAL HOSPITAL,,,,,,,
-95.39638,29.71381,"6411 FANNIN, HOUSTON, TX 77030",MEMORIAL HERMANN TEXAS MEDICAL CENTER,,,,,,,
-96.96031,32.8347,"1901 N MACARTHUR BLVD, IRVING, TX 75061",BAYLOR MEDICAL CENTER AT IRVING,,,,,,,
-95.29098,32.33864,"1000 SOUTH BECKHAM STREET, TYLER, TX 75701",EAST TEXAS MEDICAL CENTER,,,,,,,
-97.21352,32.82924,"4401 BOOTH CALLOWAY ROAD, NORTH RICHLAND, TX 76180",NORTH HILLS HOSPITAL,,,,,,,
-95.2866,32.34153,"800 EAST DAWSON, TYLER, TX 75701",MOTHER FRANCES HOSPITAL,,,,,,,
-102.37429,31.8452,"500 W 4TH STREET, ODESSA, TX 79761",MEDICAL CENTER HOSPITAL,,,,,,,
-102.09911,31.99663,"2200 WEST ILLINOIS AVE, MIDLAND, TX 79701",MIDLAND MEMORIAL HOSPITAL,,,,,,,
-97.3391,32.73725,"1301 PENNSYLVANIA AVENUE, FORT WORTH, TX 76104",TEXAS HEALTH HARRIS METHODIST FORT WORTH,,,,,,,
-97.34555,32.72955,"1400 EIGHTH AVE, FORT WORTH, TX 76104",BAYLOR ALL SAINTS MEDICAL CENTER AT FW,,,,,,,
-95.43043,29.81154,"1635  NORTH LOOP WEST, HOUSTON, TX 77008",MEMORIAL HERMANN HOSPITAL SYSTEM,,,,,,,
-95.4004,29.70788,"6720 BERTNER, HOUSTON, TX 77030",ST LUKES EPISCOPAL HOSPITAL,,,,,,,
-95.54732,33.65977,"820 CLARKSVILLE ST, PARIS, TX 75460",PARIS REGIONAL MEDICAL CENTER,,,,,,,
-94.04687,33.42793,"1000 PINE STREET, TEXARKANA, TX 75501",WADLEY REGIONAL MEDICAL CENTER,,,,,,,
-101.92023,35.19995,"1501 COULTER ROAD, AMARILLO, TX 79106",NORTHWEST TEXAS HOSPITAL,,,,,,,
-94.74212,31.33632,"1201 WEST FRANK STREET, LUFKIN, TX 75901",MEMORIAL HEALTH SYSTEM OF EAST TEXAS- LUFKIN,,,,,,,
-95.46776,30.28471,"504 MEDICAL CENTER BLVD, CONROE, TX 77304",CONROE REGIONAL MEDICAL CENTER,,,,,,,
-99.7306,32.47094,"1900 PINE, ABILENE, TX 79601",HENDRICK MEDICAL CENTER,,,,,,,
-101.92087,35.19587,"1600 WALLACE BLVD, AMARILLO, TX 79106",BAPTIST ST ANTHONYS HEALTH SYSTEM-BAPTIST CAMPUS,,,,,,,
-95.59968,33.15622,"115 AIRPORT RD, SULPHUR SPRINGS, TX 75482",HOPKINS COUNTY MEMORIAL HOSPITAL,,,,,,,
-98.49834,29.42808,"333 N SANTA ROSA STREET, SAN ANTONIO, TX 78207",CHRISTUS SANTA ROSA HOSPITAL,,,,,,,
-97.5938,33.21692,"609 MEDICAL CENTER DRIVE, DECATUR, TX 76234",WISE REGIONAL HEALTH SYSTEM,,,,,,,
-96.66136,32.91933,"2300 MARIE CURIE DRIVE, GARLAND, TX 75042",BAYLOR MEDICAL CENTER AT GARLAND,,,,,,,
-96.58733,33.71131,"5016 S US HIGHWAY 75, DENISON, TX 75020",TEXOMA MEDICAL CENTER,,,,,,,
-94.11979,30.07077,"3080 COLLEGE STREET, BEAUMONT, TX 77701",MEMORIAL HERMANN BAPTIST BEAUMONT HOSPITAL,,,,,,,
-95.39971,29.70987,"6565 FANNIN, HOUSTON, TX 77030","METHODIST HOSPITAL,THE",,,,,,,
-98.57219,29.50788,"7700 FLOYD CURL DR, SAN ANTONIO, TX 78229",METHODIST HOSPITAL,,,,,,,
-97.72619,30.28999,"919 E 32ND ST, AUSTIN, TX 78705",ST DAVIDS MEDICAL CENTER,,,,,,,
-96.50376,32.0851,"3201 WEST HIGHWAY 22, CORSICANA, TX 75110",NAVARRO REGIONAL HOSPITAL,,,,,,,
-96.76317,32.87944,"8200 WALNUT HILL LANE, DALLAS, TX 75231",TEXAS HEALTH PRESBYTERIAN HOSPITAL  DALLAS,,,,,,,
-96.62394,33.63729,"500 N HIGHLAND AVENUE, SHERMAN, TX 75091",TEXAS HEALTH PRESBYTERIAN HOSPITAL-WNJ,,,,,,,
-94.7562,31.32799,"505 SOUTH JOHN REDDITT DRIVE, LUFKIN, TX 75904",WOODLAND HEIGHTS MEDICAL CENTER,,,,,,,
-99.74626,32.37487,"6250 HWY 83/84, ABILENE, TX 79606",ABILENE REGIONAL MEDICAL CENTER,,,,,,,
-97.09382,32.93366,"1650 W COLLEGE ST, GRAPEVINE, TX 76051",BAYLOR REGIONAL MEDICAL CENTER AT GRAPEVINE,,,,,,,
-98.14533,32.79966,"400 SOUTHWEST 25 AVE, MINERAL WELLS, TX 76067",PALO PINTO GENERAL HOSPITAL,,,,,,,
-100.43438,31.46448,"120 EAST HARRIS AVENUE, SAN ANGELO, TX 76903",SHANNON MEDICAL CENTER,,,,,,,
-98.88017,30.2629,"1020 SOUTH STATE HIGHWAY 16, FREDERICKSBURG, TX 78624",HILL COUNTRY MEMORIAL HOSPITAL INC,,,,,,,
-95.54589,29.78115,"921 GESSNER, HOUSTON, TX 77024",MEMORIAL HERMANN MEMORIAL CITY MEDICAL CENTER,,,,,,,
-95.1274,29.54039,"500 MEDICAL CENTER BLVD, WEBSTER, TX 77598",CLEAR LAKE REGIONAL MEDICAL CENTER,,,,,,,
-97.09073,33.17687,"3535 SOUTH I35 EAST, DENTON, TX 76210",DENTON REGIONAL MEDICAL CENTER,,,,,,,
-95.44266,30.02075,"710 FM 1960 WEST, HOUSTON, TX 77090",HOUSTON NORTHWEST MEDICAL CENTER,,,,,,,
-96.77371,32.91188,"7777 FOREST LANE, DALLAS, TX 75230",MEDICAL CITY DALLAS HOSPITAL,,,,,,,
-106.48077,31.77772,"1625 MEDICAL CENTER DR, EL PASO, TX 79902",SIERRA MEDICAL CENTER,,,,,,,
-97.34522,32.73594,"900 EIGHTH AVENUE, FORT WORTH, TX 76104",PLAZA MEDICAL CENTER OF FORT WORTH,,,,,,,
-95.27608,29.99565,"18951 MEMORIAL NORTH, HUMBLE, TX 77338",MEMORIAL HERMANN NORTHEAST,,,,,,,
-101.89099,33.58934,"602 INDIANA AVENUE, LUBBOCK, TX 79415",UNIVERSITY MEDICAL CENTER,,,,,,,
-94.73022,32.53312,"2901 N FOURTH ST, LONGVIEW, TX 75605",LONGVIEW REGIONAL MEDICAL CENTER,,,,,,,
-97.77434,30.22637,"901 WEST BEN WHITE BLVD, AUSTIN, TX 78704",ST DAVID'S SOUTH AUSTIN MEDICAL CENTER,,,,,,,
-96.50871,32.91811,"6800 SCENIC DR, ROWLETT, TX 75088",LAKE POINTE MEDICAL CENTER,,,,,,,
-95.25598,30.0528,"22999 US HWY 59, KINGWOOD, TX 77325",KINGWOOD MEDICAL CENTER,,,,,,,
-97.34486,27.69297,"7101 S PADRE ISLAND DR, CORPUS CHRISTI, TX 78412","CORPUS CHRISTI MEDICAL CENTER,THE",,,,,,,
-94.07544,33.46221,"2600 ST MICHAEL DR, TEXARKANA, TX 75504",CHRISTUS ST MICHAEL HEALTH SYSTEM,,,,,,,
-95.63112,29.58907,"16655 SOUTHWEST FREEWAY, SUGAR LAND, TX 77479",METHODIST SUGAR LAND HOSPITAL,,,,,,,
-95.71674,29.77706,"701 SOUTH FRY ROAD, KATY, TX 77450",CHRISTUS ST CATHERINE HOSPITAL,,,,,,,
-96.7809,32.78804,"621 NORTH HALL STREET, DALLAS, TX 75226",BAYLOR HEART AND VASCULAR HOSPITAL,,,,,,,
-97.67528,26.15754,"5501 SOUTH EXPRESSWAY 77, HARLINGEN, TX 78550",HARLINGEN MEDICAL CENTER,,,,,,,
-95.4583,30.20579,"17200 ST LUKE'S WAY, THE WOODLANDS, TX 77384",ST LUKE'S THE WOODLANDS HOSPITAL,,,,,,,
-98.20534,26.25266,"5501 SOUTH MCCOLL, EDINBURG, TX 78539",DOCTORS HOSPITAL AT RENAISSANCE,,,,,,,
-101.91602,33.603,"4810 NORTH LOOP 289, LUBBOCK, TX 79416",LUBBOCK HEART HOSPITAL LP,,,,,,,
-111.66577,40.24796,"1034 NORTH 500 WEST, PROVO, UT 84604",UTAH VALLEY REGIONAL MEDICAL CENTER,,,,,,,
-111.94913,41.18247,"4401 HARRISON BOULEVARD, OGDEN, UT 84403",MCKAY DEE HOSPITAL CENTER,,,,,,,
-111.96901,41.16433,"5475 SOUTH 500 EAST, OGDEN, UT 84405",OGDEN REGIONAL MEDICAL CENTER,,,,,,,
-111.89218,40.65926,"5121 SOUTH COTTONWOOD STREET, MURRAY, UT 84157",INTERMOUNTAIN MEDICAL CENTER,,,,,,,
-113.55352,37.09756,"1380 EAST MEDICAL CENTER DRIVE, ST GEORGE, UT 84790",DIXIE REGIONAL MEDICAL CENTER,,,,,,,
-111.8569,40.68611,"1200 EAST 3900 SOUTH, SALT LAKE CITY, UT 84124",ST MARKS HOSPITAL,,,,,,,
-73.1941,44.47967,"111 COLCHESTER AVE, BURLINGTON, VT 5401",FLETCHER ALLEN HOSPITAL OF VERMONT,,,,,,,
-78.85543,38.4051,"2010 HEALTH CAMPUS DRIVE, HARRISONBURG, VA 22801",ROCKINGHAM MEMORIAL HOSPITAL,,,,,,,
-78.19175,39.19751,"220 CAMPUS BLVD SUITE 210, WINCHESTER, VA 22601",WINCHESTER MEDICAL CENTER INC,,,,,,,
-76.30358,36.8621,"600 GRESHAM DR, NORFOLK, VA 23507",SENTARA NORFOLK GENERAL HOSPITAL,,,,,,,
-78.51063,38.02802,"JEFFERSON PARK AVE, CHARLOTTESVILLE, VA 22908",UNIVERSITY OF VIRGINIA MEDICAL CENTER,,,,,,,
-76.28157,36.89933,"150 KINGSLEY LANE, NORFOLK, VA 23505",BON SECOURS - DEPAUL MEDICAL CENTER,,,,,,,
-76.34803,36.83667,"3636 HIGH STREET, PORTSMOUTH, VA 23707",BON SECOURS MARYVIEW MEDICAL CENTER,,,,,,,
-79.1687,37.41368,"1920 ATHERHOLT ROAD, LYNCHBURG, VA 24501","CENTRA  HEALTH, INC",,,,,,,
-77.48325,38.31089,"1001 SAM PERRY BOULEVARD, FREDERICKSBURG, VA 22401","MARY WASHINGTON HOSPITAL, INC",,,,,,,
-79.94221,37.25126,"1906 BELLEVIEW AVENUE, SE, ROANOKE, VA 24014",CARILION ROANOKE MEMORIAL CENTER,,,,,,,
-77.105,38.82245,"4320 SEMINARY RD, ALEXANDRIA, VA 22304",INOVA ALEXANDRIA HOSPITAL,,,,,,,
-80.50516,37.08886,"2900 LAMB CIRCLE, CHRISTIANSBURG, VA 24073",CARILION NEW RIVER VALLEY MEDICAL CENTER,,,,,,,
-76.58065,36.77319,"2800 GODWIN BOULEVARD, SUFFOLK, VA 23439",SENTARA OBICI HOSPITAL,,,,,,,
-77.48697,38.76713,"8700 SUDLEY RD, MANASSAS, VA 20110",PRINCE WILLIAM HOSPITAL,,,,,,,
-80.03149,37.26363,"1900 ELECTRIC ROAD, SALEM, VA 24153",LEWISGALE MEDICAL CENTER,,,,,,,
-77.12729,38.88917,"1701 NORTH GEORGE MASON DRIVE, ARLINGTON, VA 22205",VIRGINIA HOSPITAL CENTER - ARLINGTON,,,,,,,
-76.48334,37.06346,"500 J CLYDE MORRIS BLVD, NEWPORT NEWS, VA 23601",RIVERSIDE REGIONAL MEDICAL CENTER,,,,,,,
-76.02649,36.86484,"1060 FIRST COLONIAL ROAD, VIRGINIA BEACH, VA 23454",SENTARA VIRGINIA BEACH GENERAL HOSPITAL,,,,,,,
-77.22861,38.85796,"3300 GALLOWS RD, FALLS CHURCH, VA 22042",INOVA FAIRFAX HOSPITAL,,,,,,,
-76.74105,37.33667,"100 SENTARA CIRCLE, WILLIAMSBURG, VA 23188",SENTARA WILLIAMSBURG REGIONAL MEDICAL CENTER,,,,,,,
-77.38825,37.62885,"8260 ATLEE ROAD, MECHANICSVILLE, VA 23116",BON SECOURS - MEMORIAL REGIONAL MEDICAL,,,,,,,
-79.40414,36.57834,"142 SOUTH MAIN STREET, DANVILLE, VA 24541",DANVILLE REGIONAL MEDICAL CENTER,,,,,,,
-78.44446,38.02261,"500 MARTHA JEFFERSON DRIVE, CHARLOTTESVILLE, VA 22911",MARTHA JEFFERSON HOSPITAL,,,,,,,
-76.39045,37.05694,"3000 COLISEUM DRIVE, HAMPTON, VA 23666",SENTARA CAREPLEX HOSPITAL,,,,,,,
-77.37992,38.8847,"3600 JOSEPH SIEWICK DRIVE, FAIRFAX, VA 22033",INOVA FAIR OAKS HOSPITAL,,,,,,,
-77.36398,38.96232,"1850 TOWN CENTER PARKWAY, RESTON, VA 20190",RESTON HOSPITAL CENTER,,,,,,,
-77.59464,37.51069,"1401 JOHNSTON WILLIS DRIVE, RICHMOND, VA 23235",CJW MEDICAL CENTER,,,,,,,
-77.54006,37.60404,"1602 SKIPWITH ROAD, RICHMOND, VA 23229",HENRICO DOCTORS' HOSPITAL,,,,,,,
-76.24578,36.74626,"736 BATTLEFIELD BLVD NORTH, CHESAPEAKE, VA 23320",CHESAPEAKE REGIONAL MEDICAL CENTER,,,,,,,
-122.32791,47.60947,"1100 NINTH AVENUE (PO BOX 900), SEATTLE, WA 98111",VIRGINIA MASON MEDICAL CENTER,,,,,,,
-120.52131,46.59663,"110 SOUTH NINTH AVE, YAKIMA, WA 98902",YAKIMA REGIONAL MEDICAL AND CARDIAC CENTER,,,,,,,
-122.20748,47.9999,"1321 COLBY AVENUE, EVERETT, WA 98201",PROVIDENCE REGIONAL MEDICAL CENTER EVERETT,,,,,,,
-120.32143,47.40671,"1201 SOUTH MILLER STREET, WENATCHEE, WA 98807",CENTRAL WASHINGTON HOSPITAL,,,,,,,
-122.84799,47.053,"413 LILLY ROAD NE, OLYMPIA, WA 98506",PROVIDENCE ST PETER HOSPITAL,,,,,,,
-122.3107,47.60648,"500 17TH AVENUE, SEATTLE, WA 98122",SWEDISH MEDICAL CENTER/CHERRY HILL,,,,,,,
-122.32209,47.60886,"747 BROADWAY, SEATTLE, WA 98122",SWEDISH MEDICAL CENTER,,,,,,,
-122.47392,48.77259,"2901 SQUALICUM PARKWAY, BELLINGHAM, WA 98225",ST JOSEPH MEDICAL CENTER,,,,,,,
-120.54776,46.59381,"2811 TIETON DRIVE, YAKIMA, WA 98902",YAKIMA VALLEY MEMORIAL HOSPITAL,,,,,,,
-122.62516,47.58283,"2520 CHERRY AVENUE, BREMERTON, WA 98310",HARRISON MEDICAL CENTER,,,,,,,
-117.43406,47.6515,"W 800 FIFTH AVENUE, SPOKANE, WA 99210",DEACONESS HOSPITAL,,,,,,,
-122.58163,45.62387,"400 NE MOTHER JOSEPH PLACE, VANCOUVER, WA 98668",PEACEHEALTH SOUTHWEST MEDICAL CENTER,,,,,,,
-122.18734,47.62019,"1035-116TH AVE NE, BELLEVUE, WA 98004",OVERLAKE HOSPITAL MEDICAL CENTER,,,,,,,
-117.41347,47.64914,"101 WEST 8TH AVENUE, SPOKANE, WA 99204",PROVIDENCE SACRED HEART MEDICAL CENTER,,,,,,,
-119.29014,46.28068,"888 SWIFT BLVD, RICHLAND, WA 99352",KADLEC REGIONAL MEDICAL CENTER,,,,,,,
-117.4071,47.70983,"5633 NORTH LIDGERWOOD, SPOKANE, WA 99208",PROVIDENCE HOLY FAMILY HOSPITAL,,,,,,,
-122.21431,47.44243,"400 S 43RD ST, RENTON, WA 98055",VALLEY MEDICAL CENTER,,,,,,,
-122.17842,47.71561,"12040 NE 128TH STREET, KIRKLAND, WA 98034",EVERGREEN HOSPITAL MEDICAL CENTER,,,,,,,
-122.45297,47.25936,"315 S MLK JR WAY, TACOMA, WA 98415",TACOMA GENERAL ALLENMORE HOSPITAL,,,,,,,
-122.95178,47.04292,"3900 CAPITAL MALL DR SW, OLYMPIA, WA 98502",CAPITAL MEDICAL CENTER,,,,,,,
-122.32736,47.29255,"34515 9TH AVENUE SOUTH, FEDERAL WAY, WA 98003",ST FRANCIS COMMUNITY HOSPITAL,,,,,,,
-80.23958,39.32855,"327 MEDICAL PARK DRIVE, BRIDGEPORT, WV 26330",UNITED HOSPITAL CENTER,,,,,,,
-82.40067,38.43236,"2900 1ST AVENUE, HUNTINGTON, WV 25701",ST MARY'S MEDICAL CENTER,,,,,,,
-81.62658,38.34804,"501 MORRIS STREET, CHARLESTON, WV 25301",CHARLESTON AREA MEDICAL CENTER,,,,,,,
-79.94645,39.66406,"1200 JD ANDERSON DR, MORGANTOWN, WV 26505",MONONGALIA COUNTY GENERAL HOSPITAL,,,,,,,
-81.72639,38.35408,"4605 MACCORKLE AVE SW, SOUTH CHARLESTO, WV 25309",THOMAS MEMORIAL HOSPITAL,,,,,,,
-80.68505,40.05885,"1 MEDICAL PARK, WHEELING, WV 26003",WHEELING HOSPITAL,,,,,,,
-81.55598,39.27616,"800 GARFIELD AVE, PARKERSBURG, WV 26101",CAMDEN CLARK MEDICAL CENTER,,,,,,,
-81.20183,37.78754,"1710 HARPER ROAD, BECKLEY, WV 25801",RALEIGH GENERAL HOSPITAL,,,,,,,
-91.24269,43.80438,"700 WEST AVE S, LA CROSSE, WI 54601","MAYO CLINIC HLTH SYSTEM- FRANCISCAN MED CTR, INC",,,,,,,
-88.24308,43.01117,"725 AMERICAN AVE, WAUKESHA, WI 53188",WAUKESHA MEMORIAL HOSPITAL,,,,,,,
-91.5109,44.79492,"900 W CLAIREMONT AVE, EAU CLAIRE, WI 54701",SACRED HEART HSPTL,,,,,,,
-87.82041,42.57749,"6308 EIGHTH AVE, KENOSHA, WI 53143",UNITED HSPTL SYS,,,,,,,
-89.63494,42.60782,"2005 5TH STREET, MONROE, WI 53566",THE MONROE CLINIC,,,,,,,
-89.66769,44.96603,"333 PINE RIDGE BLVD, WAUSAU, WI 54401",ASPIRUS WAUSAU HOSPITAL,,,,,,,
-90.17704,44.67804,"611 ST JOSEPH AVE, MARSHFIELD, WI 54449",MINISTRY SAINT JOSEPH'S HOSPITAL,,,,,,,
